{
   "type": "FeatureCollection",
   "features": [
  {
    "type": "Feature",
    "geometry": {
       "type": "Point",
       "coordinates":  [ 160.054993,-9.428,0 ]
    },
    "properties": {
    "id":3,
    "ident":"AGGH",
    "type":"large_airport",
    "name":"Honiara International Airport",
    "continent":"OC",
    "iso_country":"SB",
    "iso_region":"SB-GU",
    "municipality":"Honiara"
    }
  },
  {
    "type": "Feature",
    "geometry": {
       "type": "Point",
       "coordinates":  [ 147.2200012,-9.443380356,0 ]
    },
    "properties": {
    "id":67,
    "ident":"AYPY",
    "type":"large_airport",
    "name":"Port Moresby Jacksons International Airport",
    "continent":"OC",
    "iso_country":"PG",
    "iso_region":"PG-NCD",
    "municipality":"Port Moresby"
    }
  },
  {
    "type": "Feature",
    "geometry": {
       "type": "Point",
       "coordinates":  [ -22.6056,63.985001,0 ]
    },
    "properties": {
    "id":123,
    "ident":"BIKF",
    "type":"large_airport",
    "name":"Keflavik International Airport",
    "continent":"EU",
    "iso_country":"IS",
    "iso_region":"IS-2",
    "municipality":"Reykjavík"
    }
  },
  {
    "type": "Feature",
    "geometry": {
       "type": "Point",
       "coordinates":  [ -113.580002,53.3097,0 ]
    },
    "properties": {
    "id":1717,
    "ident":"CYEG",
    "type":"large_airport",
    "name":"Edmonton International Airport",
    "continent":"NA",
    "iso_country":"CA",
    "iso_region":"CA-AB",
    "municipality":"Edmonton"
    }
  },
  {
    "type": "Feature",
    "geometry": {
       "type": "Point",
       "coordinates":  [ -63.50859833,44.88079834,0 ]
    },
    "properties": {
    "id":1770,
    "ident":"CYHZ",
    "type":"large_airport",
    "name":"Halifax / Stanfield International Airport",
    "continent":"NA",
    "iso_country":"CA",
    "iso_region":"CA-NS",
    "municipality":"Halifax"
    }
  },
  {
    "type": "Feature",
    "geometry": {
       "type": "Point",
       "coordinates":  [ -75.669197,45.322498,0 ]
    },
    "properties": {
    "id":1840,
    "ident":"CYOW",
    "type":"large_airport",
    "name":"Ottawa Macdonald-Cartier International Airport",
    "continent":"NA",
    "iso_country":"CA",
    "iso_region":"CA-ON",
    "municipality":"Ottawa"
    }
  },
  {
    "type": "Feature",
    "geometry": {
       "type": "Point",
       "coordinates":  [ -71.393303,46.7911,0 ]
    },
    "properties": {
    "id":1864,
    "ident":"CYQB",
    "type":"large_airport",
    "name":"Quebec Jean Lesage International Airport",
    "continent":"NA",
    "iso_country":"CA",
    "iso_region":"CA-QC",
    "municipality":"Quebec"
    }
  },
  {
    "type": "Feature",
    "geometry": {
       "type": "Point",
       "coordinates":  [ -73.74079895,45.47060013,0 ]
    },
    "properties": {
    "id":1928,
    "ident":"CYUL",
    "type":"large_airport",
    "name":"Montreal / Pierre Elliott Trudeau International Airport",
    "continent":"NA",
    "iso_country":"CA",
    "iso_region":"CA-QC",
    "municipality":"Montréal"
    }
  },
  {
    "type": "Feature",
    "geometry": {
       "type": "Point",
       "coordinates":  [ -123.1839981,49.19390106,0 ]
    },
    "properties": {
    "id":1941,
    "ident":"CYVR",
    "type":"large_airport",
    "name":"Vancouver International Airport",
    "continent":"NA",
    "iso_country":"CA",
    "iso_region":"CA-BC",
    "municipality":"Vancouver"
    }
  },
  {
    "type": "Feature",
    "geometry": {
       "type": "Point",
       "coordinates":  [ -97.23989868,49.90999985,0 ]
    },
    "properties": {
    "id":1946,
    "ident":"CYWG",
    "type":"large_airport",
    "name":"Winnipeg / James Armstrong Richardson International Airport",
    "continent":"NA",
    "iso_country":"CA",
    "iso_region":"CA-MB",
    "municipality":"Winnipeg"
    }
  },
  {
    "type": "Feature",
    "geometry": {
       "type": "Point",
       "coordinates":  [ -122.666554,53.884311,0 ]
    },
    "properties": {
    "id":1966,
    "ident":"CYXS",
    "type":"large_airport",
    "name":"Prince George Airport",
    "continent":"NA",
    "iso_country":"CA",
    "iso_region":"CA-BC",
    "municipality":"Prince George"
    }
  },
  {
    "type": "Feature",
    "geometry": {
       "type": "Point",
       "coordinates":  [ -122.361,49.025299,0 ]
    },
    "properties": {
    "id":1969,
    "ident":"CYXX",
    "type":"large_airport",
    "name":"Abbotsford International Airport",
    "continent":"NA",
    "iso_country":"CA",
    "iso_region":"CA-BC",
    "municipality":"Abbotsford"
    }
  },
  {
    "type": "Feature",
    "geometry": {
       "type": "Point",
       "coordinates":  [ -114.0199966,51.11389923,0 ]
    },
    "properties": {
    "id":1973,
    "ident":"CYYC",
    "type":"large_airport",
    "name":"Calgary International Airport",
    "continent":"NA",
    "iso_country":"CA",
    "iso_region":"CA-AB",
    "municipality":"Calgary"
    }
  },
  {
    "type": "Feature",
    "geometry": {
       "type": "Point",
       "coordinates":  [ -123.426003,48.6469,0 ]
    },
    "properties": {
    "id":1979,
    "ident":"CYYJ",
    "type":"large_airport",
    "name":"Victoria International Airport",
    "continent":"NA",
    "iso_country":"CA",
    "iso_region":"CA-BC",
    "municipality":"Victoria"
    }
  },
  {
    "type": "Feature",
    "geometry": {
       "type": "Point",
       "coordinates":  [ -52.7519,47.618599,0 ]
    },
    "properties": {
    "id":1986,
    "ident":"CYYT",
    "type":"large_airport",
    "name":"St. John's International Airport",
    "continent":"NA",
    "iso_country":"CA",
    "iso_region":"CA-NL",
    "municipality":"St. John's"
    }
  },
  {
    "type": "Feature",
    "geometry": {
       "type": "Point",
       "coordinates":  [ -79.63059998,43.67720032,0 ]
    },
    "properties": {
    "id":1990,
    "ident":"CYYZ",
    "type":"large_airport",
    "name":"Lester B. Pearson International Airport",
    "continent":"NA",
    "iso_country":"CA",
    "iso_region":"CA-ON",
    "municipality":"Toronto"
    }
  },
  {
    "type": "Feature",
    "geometry": {
       "type": "Point",
       "coordinates":  [ 3.214531,36.693886,0 ]
    },
    "properties": {
    "id":2050,
    "ident":"DAAG",
    "type":"large_airport",
    "name":"Houari Boumediene Airport",
    "continent":"AF",
    "iso_country":"DZ",
    "iso_region":"DZ-16",
    "municipality":"Algiers"
    }
  },
  {
    "type": "Feature",
    "geometry": {
       "type": "Point",
       "coordinates":  [ -0.166786,5.6051898,0 ]
    },
    "properties": {
    "id":2090,
    "ident":"DGAA",
    "type":"large_airport",
    "name":"Kotoka International Airport",
    "continent":"AF",
    "iso_country":"GH",
    "iso_region":"GH-AA",
    "municipality":"Accra"
    }
  },
  {
    "type": "Feature",
    "geometry": {
       "type": "Point",
       "coordinates":  [ 7.263169765,9.006790161,0 ]
    },
    "properties": {
    "id":2104,
    "ident":"DNAA",
    "type":"large_airport",
    "name":"Nnamdi Azikiwe International Airport",
    "continent":"AF",
    "iso_country":"NG",
    "iso_region":"NG-FC",
    "municipality":"Abuja"
    }
  },
  {
    "type": "Feature",
    "geometry": {
       "type": "Point",
       "coordinates":  [ 3.321160078,6.577370167,0 ]
    },
    "properties": {
    "id":2118,
    "ident":"DNMM",
    "type":"large_airport",
    "name":"Murtala Muhammed International Airport",
    "continent":"AF",
    "iso_country":"NG",
    "iso_region":"NG-LA",
    "municipality":"Lagos"
    }
  },
  {
    "type": "Feature",
    "geometry": {
       "type": "Point",
       "coordinates":  [ 2.18361,13.4815,0 ]
    },
    "properties": {
    "id":2125,
    "ident":"DRRN",
    "type":"large_airport",
    "name":"Diori Hamani International Airport",
    "continent":"AF",
    "iso_country":"NE",
    "iso_region":"NE-8",
    "municipality":"Niamey"
    }
  },
  {
    "type": "Feature",
    "geometry": {
       "type": "Point",
       "coordinates":  [ 10.2272,36.851002,0 ]
    },
    "properties": {
    "id":2133,
    "ident":"DTTA",
    "type":"large_airport",
    "name":"Tunis Carthage International Airport",
    "continent":"AF",
    "iso_country":"TN",
    "iso_region":"TN-11",
    "municipality":"Tunis"
    }
  },
  {
    "type": "Feature",
    "geometry": {
       "type": "Point",
       "coordinates":  [ 4.48444,50.901402,0 ]
    },
    "properties": {
    "id":2155,
    "ident":"EBBR",
    "type":"large_airport",
    "name":"Brussels Airport",
    "continent":"EU",
    "iso_country":"BE",
    "iso_region":"BE-BRU",
    "municipality":"Zaventem"
    }
  },
  {
    "type": "Feature",
    "geometry": {
       "type": "Point",
       "coordinates":  [ 8.561268,50.036521,0 ]
    },
    "properties": {
    "id":2212,
    "ident":"EDDF",
    "type":"large_airport",
    "name":"Frankfurt Airport",
    "continent":"EU",
    "iso_country":"DE",
    "iso_region":"DE-HE",
    "municipality":"Frankfurt am Main"
    }
  },
  {
    "type": "Feature",
    "geometry": {
       "type": "Point",
       "coordinates":  [ 9.98823,53.630402,0 ]
    },
    "properties": {
    "id":2214,
    "ident":"EDDH",
    "type":"large_airport",
    "name":"Hamburg Helmut Schmidt Airport",
    "continent":"EU",
    "iso_country":"DE",
    "iso_region":"DE-HH",
    "municipality":"Hamburg"
    }
  },
  {
    "type": "Feature",
    "geometry": {
       "type": "Point",
       "coordinates":  [ 7.14274,50.865898,0 ]
    },
    "properties": {
    "id":2216,
    "ident":"EDDK",
    "type":"large_airport",
    "name":"Cologne Bonn Airport",
    "continent":"EU",
    "iso_country":"DE",
    "iso_region":"DE-NW",
    "municipality":"Köln (Cologne)"
    }
  },
  {
    "type": "Feature",
    "geometry": {
       "type": "Point",
       "coordinates":  [ 6.76678,51.289501,0 ]
    },
    "properties": {
    "id":2217,
    "ident":"EDDL",
    "type":"large_airport",
    "name":"Düsseldorf Airport",
    "continent":"EU",
    "iso_country":"DE",
    "iso_region":"DE-NW",
    "municipality":"Düsseldorf"
    }
  },
  {
    "type": "Feature",
    "geometry": {
       "type": "Point",
       "coordinates":  [ 11.7861,48.353802,0 ]
    },
    "properties": {
    "id":2218,
    "ident":"EDDM",
    "type":"large_airport",
    "name":"Munich Airport",
    "continent":"EU",
    "iso_country":"DE",
    "iso_region":"DE-BY",
    "municipality":"Munich"
    }
  },
  {
    "type": "Feature",
    "geometry": {
       "type": "Point",
       "coordinates":  [ 11.078056,49.498699,0 ]
    },
    "properties": {
    "id":2219,
    "ident":"EDDN",
    "type":"large_airport",
    "name":"Nuremberg Airport",
    "continent":"EU",
    "iso_country":"DE",
    "iso_region":"DE-BY",
    "municipality":"Nuremberg"
    }
  },
  {
    "type": "Feature",
    "geometry": {
       "type": "Point",
       "coordinates":  [ 12.236389,51.423889,0 ]
    },
    "properties": {
    "id":2220,
    "ident":"EDDP",
    "type":"large_airport",
    "name":"Leipzig/Halle Airport",
    "continent":"EU",
    "iso_country":"DE",
    "iso_region":"DE-SN",
    "municipality":"Leipzig"
    }
  },
  {
    "type": "Feature",
    "geometry": {
       "type": "Point",
       "coordinates":  [ 9.221960068,48.68989944,0 ]
    },
    "properties": {
    "id":2222,
    "ident":"EDDS",
    "type":"large_airport",
    "name":"Stuttgart Airport",
    "continent":"EU",
    "iso_country":"DE",
    "iso_region":"DE-BW",
    "municipality":"Stuttgart"
    }
  },
  {
    "type": "Feature",
    "geometry": {
       "type": "Point",
       "coordinates":  [ 9.68508,52.461102,0 ]
    },
    "properties": {
    "id":2224,
    "ident":"EDDV",
    "type":"large_airport",
    "name":"Hannover Airport",
    "continent":"EU",
    "iso_country":"DE",
    "iso_region":"DE-NI",
    "municipality":"Hannover"
    }
  },
  {
    "type": "Feature",
    "geometry": {
       "type": "Point",
       "coordinates":  [ 24.83279991,59.41329956,0 ]
    },
    "properties": {
    "id":2301,
    "ident":"EETN",
    "type":"large_airport",
    "name":"Lennart Meri Tallinn Airport",
    "continent":"EU",
    "iso_country":"EE",
    "iso_region":"EE-37",
    "municipality":"Tallinn"
    }
  },
  {
    "type": "Feature",
    "geometry": {
       "type": "Point",
       "coordinates":  [ 24.963301,60.3172,0 ]
    },
    "properties": {
    "id":2307,
    "ident":"EFHK",
    "type":"large_airport",
    "name":"Helsinki Vantaa Airport",
    "continent":"EU",
    "iso_country":"FI",
    "iso_region":"FI-18",
    "municipality":"Helsinki"
    }
  },
  {
    "type": "Feature",
    "geometry": {
       "type": "Point",
       "coordinates":  [ -6.215829849,54.65750122,0 ]
    },
    "properties": {
    "id":2385,
    "ident":"EGAA",
    "type":"large_airport",
    "name":"Belfast International Airport",
    "continent":"EU",
    "iso_country":"GB",
    "iso_region":"GB-NIR",
    "municipality":"Belfast"
    }
  },
  {
    "type": "Feature",
    "geometry": {
       "type": "Point",
       "coordinates":  [ -1.748029947,52.45389938,0 ]
    },
    "properties": {
    "id":2389,
    "ident":"EGBB",
    "type":"large_airport",
    "name":"Birmingham International Airport",
    "continent":"EU",
    "iso_country":"GB",
    "iso_region":"GB-ENG",
    "municipality":"Birmingham"
    }
  },
  {
    "type": "Feature",
    "geometry": {
       "type": "Point",
       "coordinates":  [ -2.279521,53.349375,0 ]
    },
    "properties": {
    "id":2398,
    "ident":"EGCC",
    "type":"large_airport",
    "name":"Manchester Airport",
    "continent":"EU",
    "iso_country":"GB",
    "iso_region":"GB-ENG",
    "municipality":"Manchester"
    }
  },
  {
    "type": "Feature",
    "geometry": {
       "type": "Point",
       "coordinates":  [ -0.368333012,51.87469864,0 ]
    },
    "properties": {
    "id":2419,
    "ident":"EGGW",
    "type":"large_airport",
    "name":"London Luton Airport",
    "continent":"EU",
    "iso_country":"GB",
    "iso_region":"GB-ENG",
    "municipality":"London"
    }
  },
  {
    "type": "Feature",
    "geometry": {
       "type": "Point",
       "coordinates":  [ -0.190278,51.148102,0 ]
    },
    "properties": {
    "id":2429,
    "ident":"EGKK",
    "type":"large_airport",
    "name":"London Gatwick Airport",
    "continent":"EU",
    "iso_country":"GB",
    "iso_region":"GB-ENG",
    "municipality":"London"
    }
  },
  {
    "type": "Feature",
    "geometry": {
       "type": "Point",
       "coordinates":  [ -0.461941,51.4706,0 ]
    },
    "properties": {
    "id":2434,
    "ident":"EGLL",
    "type":"large_airport",
    "name":"London Heathrow Airport",
    "continent":"EU",
    "iso_country":"GB",
    "iso_region":"GB-ENG",
    "municipality":"London"
    }
  },
  {
    "type": "Feature",
    "geometry": {
       "type": "Point",
       "coordinates":  [ -4.43306,55.871899,0 ]
    },
    "properties": {
    "id":2461,
    "ident":"EGPF",
    "type":"large_airport",
    "name":"Glasgow International Airport",
    "continent":"EU",
    "iso_country":"GB",
    "iso_region":"GB-SCT",
    "municipality":"Paisley, Renfrewshire"
    }
  },
  {
    "type": "Feature",
    "geometry": {
       "type": "Point",
       "coordinates":  [ -3.372288,55.950145,0 ]
    },
    "properties": {
    "id":2462,
    "ident":"EGPH",
    "type":"large_airport",
    "name":"Edinburgh Airport",
    "continent":"EU",
    "iso_country":"GB",
    "iso_region":"GB-SCT",
    "municipality":"Edinburgh"
    }
  },
  {
    "type": "Feature",
    "geometry": {
       "type": "Point",
       "coordinates":  [ 0.234999999,51.88499832,0 ]
    },
    "properties": {
    "id":2476,
    "ident":"EGSS",
    "type":"large_airport",
    "name":"London Stansted Airport",
    "continent":"EU",
    "iso_country":"GB",
    "iso_region":"GB-ENG",
    "municipality":"London"
    }
  },
  {
    "type": "Feature",
    "geometry": {
       "type": "Point",
       "coordinates":  [ 4.76389,52.308601,0 ]
    },
    "properties": {
    "id":2513,
    "ident":"EHAM",
    "type":"large_airport",
    "name":"Amsterdam Airport Schiphol",
    "continent":"EU",
    "iso_country":"NL",
    "iso_region":"NL-NH",
    "municipality":"Amsterdam"
    }
  },
  {
    "type": "Feature",
    "geometry": {
       "type": "Point",
       "coordinates":  [ 5.374529839,51.45009995,0 ]
    },
    "properties": {
    "id":2518,
    "ident":"EHEH",
    "type":"large_airport",
    "name":"Eindhoven Airport",
    "continent":"EU",
    "iso_country":"NL",
    "iso_region":"NL-NB",
    "municipality":"Eindhoven"
    }
  },
  {
    "type": "Feature",
    "geometry": {
       "type": "Point",
       "coordinates":  [ -6.262121,53.428713,0 ]
    },
    "properties": {
    "id":2533,
    "ident":"EIDW",
    "type":"large_airport",
    "name":"Dublin Airport",
    "continent":"EU",
    "iso_country":"IE",
    "iso_region":"IE-D",
    "municipality":"Dublin"
    }
  },
  {
    "type": "Feature",
    "geometry": {
       "type": "Point",
       "coordinates":  [ -8.92482,52.702,0 ]
    },
    "properties": {
    "id":2537,
    "ident":"EINN",
    "type":"large_airport",
    "name":"Shannon Airport",
    "continent":"EU",
    "iso_country":"IE",
    "iso_region":"IE-CE",
    "municipality":"Shannon"
    }
  },
  {
    "type": "Feature",
    "geometry": {
       "type": "Point",
       "coordinates":  [ 9.151780128,55.74029922,0 ]
    },
    "properties": {
    "id":2541,
    "ident":"EKBI",
    "type":"large_airport",
    "name":"Billund Airport",
    "continent":"EU",
    "iso_country":"DK",
    "iso_region":"DK-83",
    "municipality":"Billund"
    }
  },
  {
    "type": "Feature",
    "geometry": {
       "type": "Point",
       "coordinates":  [ 12.65600014,55.61790085,0 ]
    },
    "properties": {
    "id":2542,
    "ident":"EKCH",
    "type":"large_airport",
    "name":"Copenhagen Kastrup Airport",
    "continent":"EU",
    "iso_country":"DK",
    "iso_region":"DK-84",
    "municipality":"Copenhagen"
    }
  },
  {
    "type": "Feature",
    "geometry": {
       "type": "Point",
       "coordinates":  [ 6.2044444,49.6233333,0 ]
    },
    "properties": {
    "id":2563,
    "ident":"ELLX",
    "type":"large_airport",
    "name":"Luxembourg-Findel International Airport",
    "continent":"EU",
    "iso_country":"LU",
    "iso_region":"LU-L",
    "municipality":"Luxembourg"
    }
  },
  {
    "type": "Feature",
    "geometry": {
       "type": "Point",
       "coordinates":  [ 5.21814,60.2934,0 ]
    },
    "properties": {
    "id":2570,
    "ident":"ENBR",
    "type":"large_airport",
    "name":"Bergen Airport, Flesland",
    "continent":"EU",
    "iso_country":"NO",
    "iso_region":"NO-46",
    "municipality":"Bergen"
    }
  },
  {
    "type": "Feature",
    "geometry": {
       "type": "Point",
       "coordinates":  [ 11.1004,60.193901,0 ]
    },
    "properties": {
    "id":2578,
    "ident":"ENGM",
    "type":"large_airport",
    "name":"Oslo Airport, Gardermoen",
    "continent":"EU",
    "iso_country":"NO",
    "iso_region":"NO-30",
    "municipality":"Oslo"
    }
  },
  {
    "type": "Feature",
    "geometry": {
       "type": "Point",
       "coordinates":  [ 18.9189,69.683296,0 ]
    },
    "properties": {
    "id":2599,
    "ident":"ENTC",
    "type":"large_airport",
    "name":"Tromsø Airport, Langnes",
    "continent":"EU",
    "iso_country":"NO",
    "iso_region":"NO-54",
    "municipality":"Tromsø"
    }
  },
  {
    "type": "Feature",
    "geometry": {
       "type": "Point",
       "coordinates":  [ 10.924,63.457802,0 ]
    },
    "properties": {
    "id":2601,
    "ident":"ENVA",
    "type":"large_airport",
    "name":"Trondheim Airport, Værnes",
    "continent":"EU",
    "iso_country":"NO",
    "iso_region":"NO-50",
    "municipality":"Trondheim"
    }
  },
  {
    "type": "Feature",
    "geometry": {
       "type": "Point",
       "coordinates":  [ 5.63778,58.876701,0 ]
    },
    "properties": {
    "id":2602,
    "ident":"ENZV",
    "type":"large_airport",
    "name":"Stavanger Airport, Sola",
    "continent":"EU",
    "iso_country":"NO",
    "iso_region":"NO-11",
    "municipality":"Stavanger"
    }
  },
  {
    "type": "Feature",
    "geometry": {
       "type": "Point",
       "coordinates":  [ 18.46619987,54.37760162,0 ]
    },
    "properties": {
    "id":2608,
    "ident":"EPGD",
    "type":"large_airport",
    "name":"Gdańsk Lech Wałęsa Airport",
    "continent":"EU",
    "iso_country":"PL",
    "iso_region":"PL-PM",
    "municipality":"Gdańsk"
    }
  },
  {
    "type": "Feature",
    "geometry": {
       "type": "Point",
       "coordinates":  [ 19.7848,50.077702,0 ]
    },
    "properties": {
    "id":2609,
    "ident":"EPKK",
    "type":"large_airport",
    "name":"Kraków John Paul II International Airport",
    "continent":"EU",
    "iso_country":"PL",
    "iso_region":"PL-MA",
    "municipality":"Kraków"
    }
  },
  {
    "type": "Feature",
    "geometry": {
       "type": "Point",
       "coordinates":  [ 20.96710014,52.16569901,0 ]
    },
    "properties": {
    "id":2637,
    "ident":"EPWA",
    "type":"large_airport",
    "name":"Warsaw Chopin Airport",
    "continent":"EU",
    "iso_country":"PL",
    "iso_region":"PL-MZ",
    "municipality":"Warsaw"
    }
  },
  {
    "type": "Feature",
    "geometry": {
       "type": "Point",
       "coordinates":  [ 12.27980042,57.66279984,0 ]
    },
    "properties": {
    "id":2648,
    "ident":"ESGG",
    "type":"large_airport",
    "name":"Gothenburg-Landvetter Airport",
    "continent":"EU",
    "iso_country":"SE",
    "iso_region":"SE-Q",
    "municipality":"Gothenburg"
    }
  },
  {
    "type": "Feature",
    "geometry": {
       "type": "Point",
       "coordinates":  [ 17.91860008,59.65190125,0 ]
    },
    "properties": {
    "id":2701,
    "ident":"ESSA",
    "type":"large_airport",
    "name":"Stockholm-Arlanda Airport",
    "continent":"EU",
    "iso_country":"SE",
    "iso_region":"SE-AB",
    "municipality":"Stockholm"
    }
  },
  {
    "type": "Feature",
    "geometry": {
       "type": "Point",
       "coordinates":  [ 23.9711,56.923599,0 ]
    },
    "properties": {
    "id":2758,
    "ident":"EVRA",
    "type":"large_airport",
    "name":"Riga International Airport",
    "continent":"EU",
    "iso_country":"LV",
    "iso_region":"LV-062",
    "municipality":"Riga"
    }
  },
  {
    "type": "Feature",
    "geometry": {
       "type": "Point",
       "coordinates":  [ 25.285801,54.634102,0 ]
    },
    "properties": {
    "id":2766,
    "ident":"EYVI",
    "type":"large_airport",
    "name":"Vilnius International Airport",
    "continent":"EU",
    "iso_country":"LT",
    "iso_region":"LT-VL",
    "municipality":"Vilnius"
    }
  },
  {
    "type": "Feature",
    "geometry": {
       "type": "Point",
       "coordinates":  [ 18.60169983,-33.96480179,0 ]
    },
    "properties": {
    "id":2775,
    "ident":"FACT",
    "type":"large_airport",
    "name":"Cape Town International Airport",
    "continent":"AF",
    "iso_country":"ZA",
    "iso_region":"ZA-WC",
    "municipality":"Cape Town"
    }
  },
  {
    "type": "Feature",
    "geometry": {
       "type": "Point",
       "coordinates":  [ 25.9182,-24.555201,0 ]
    },
    "properties": {
    "id":2864,
    "ident":"FBSK",
    "type":"large_airport",
    "name":"Sir Seretse Khama International Airport",
    "continent":"AF",
    "iso_country":"BW",
    "iso_region":"BW-GA",
    "municipality":"Gaborone"
    }
  },
  {
    "type": "Feature",
    "geometry": {
       "type": "Point",
       "coordinates":  [ 57.683601,-20.430201,0 ]
    },
    "properties": {
    "id":2878,
    "ident":"FIMP",
    "type":"large_airport",
    "name":"Sir Seewoosagur Ramgoolam International Airport",
    "continent":"AF",
    "iso_country":"MU",
    "iso_region":"MU-GP",
    "municipality":"Plaine Magnien"
    }
  },
  {
    "type": "Feature",
    "geometry": {
       "type": "Point",
       "coordinates":  [ 28.452722,-15.330833,0 ]
    },
    "properties": {
    "id":2894,
    "ident":"FLLS",
    "type":"large_airport",
    "name":"Kenneth Kaunda International Airport",
    "continent":"AF",
    "iso_country":"ZM",
    "iso_region":"ZM-09",
    "municipality":"Lusaka"
    }
  },
  {
    "type": "Feature",
    "geometry": {
       "type": "Point",
       "coordinates":  [ 55.518894,-20.890087,0 ]
    },
    "properties": {
    "id":2905,
    "ident":"FMEE",
    "type":"large_airport",
    "name":"Roland Garros Airport",
    "continent":"AF",
    "iso_country":"RE",
    "iso_region":"RE-SD",
    "municipality":"Sainte-Marie"
    }
  },
  {
    "type": "Feature",
    "geometry": {
       "type": "Point",
       "coordinates":  [ 47.478802,-18.7969,0 ]
    },
    "properties": {
    "id":2908,
    "ident":"FMMI",
    "type":"large_airport",
    "name":"Ivato Airport",
    "continent":"AF",
    "iso_country":"MG",
    "iso_region":"MG-T",
    "municipality":"Antananarivo"
    }
  },
  {
    "type": "Feature",
    "geometry": {
       "type": "Point",
       "coordinates":  [ 13.2312,-8.85837,0 ]
    },
    "properties": {
    "id":2942,
    "ident":"FNLU",
    "type":"large_airport",
    "name":"Quatro de Fevereiro International Airport",
    "continent":"AF",
    "iso_country":"AO",
    "iso_region":"AO-LUA",
    "municipality":"Luanda"
    }
  },
  {
    "type": "Feature",
    "geometry": {
       "type": "Point",
       "coordinates":  [ 32.572601,-25.920799,0 ]
    },
    "properties": {
    "id":2975,
    "ident":"FQMA",
    "type":"large_airport",
    "name":"Maputo Airport",
    "continent":"AF",
    "iso_country":"MZ",
    "iso_region":"MZ-MPM",
    "municipality":"Maputo"
    }
  },
  {
    "type": "Feature",
    "geometry": {
       "type": "Point",
       "coordinates":  [ 55.521801,-4.67434,0 ]
    },
    "properties": {
    "id":2993,
    "ident":"FSIA",
    "type":"large_airport",
    "name":"Seychelles International Airport",
    "continent":"AF",
    "iso_country":"SC",
    "iso_region":"SC-20",
    "municipality":"Mahe Island"
    }
  },
  {
    "type": "Feature",
    "geometry": {
       "type": "Point",
       "coordinates":  [ 15.034,12.1337,0 ]
    },
    "properties": {
    "id":2998,
    "ident":"FTTJ",
    "type":"large_airport",
    "name":"N'Djamena International Airport",
    "continent":"AF",
    "iso_country":"TD",
    "iso_region":"TD-ND",
    "municipality":"N'Djamena"
    }
  },
  {
    "type": "Feature",
    "geometry": {
       "type": "Point",
       "coordinates":  [ 31.0928,-17.931801,0 ]
    },
    "properties": {
    "id":3005,
    "ident":"FVHA",
    "type":"large_airport",
    "name":"Robert Gabriel Mugabe International Airport",
    "continent":"AF",
    "iso_country":"ZW",
    "iso_region":"ZW-HA",
    "municipality":"Harare"
    }
  },
  {
    "type": "Feature",
    "geometry": {
       "type": "Point",
       "coordinates":  [ 17.4709,-22.4799,0 ]
    },
    "properties": {
    "id":3039,
    "ident":"FYWH",
    "type":"large_airport",
    "name":"Hosea Kutako International Airport",
    "continent":"AF",
    "iso_country":"NA",
    "iso_region":"NA-KH",
    "municipality":"Windhoek"
    }
  },
  {
    "type": "Feature",
    "geometry": {
       "type": "Point",
       "coordinates":  [ 15.4446,-4.38575,0 ]
    },
    "properties": {
    "id":3040,
    "ident":"FZAA",
    "type":"large_airport",
    "name":"Ndjili International Airport",
    "continent":"AF",
    "iso_country":"CD",
    "iso_region":"CD-KN",
    "municipality":"Kinshasa"
    }
  },
  {
    "type": "Feature",
    "geometry": {
       "type": "Point",
       "coordinates":  [ -7.94994,12.5335,0 ]
    },
    "properties": {
    "id":3066,
    "ident":"GABS",
    "type":"large_airport",
    "name":"Modibo Keita International Airport",
    "continent":"AF",
    "iso_country":"ML",
    "iso_region":"ML-2",
    "municipality":"Bamako"
    }
  },
  {
    "type": "Feature",
    "geometry": {
       "type": "Point",
       "coordinates":  [ -16.652201,13.338,0 ]
    },
    "properties": {
    "id":3076,
    "ident":"GBYD",
    "type":"large_airport",
    "name":"Banjul International Airport",
    "continent":"AF",
    "iso_country":"GM",
    "iso_region":"GM-W",
    "municipality":"Banjul"
    }
  },
  {
    "type": "Feature",
    "geometry": {
       "type": "Point",
       "coordinates":  [ -13.8638,28.4527,0 ]
    },
    "properties": {
    "id":3077,
    "ident":"GCFV",
    "type":"large_airport",
    "name":"Fuerteventura Airport",
    "continent":"AF",
    "iso_country":"ES",
    "iso_region":"ES-CN",
    "municipality":"El Matorral"
    }
  },
  {
    "type": "Feature",
    "geometry": {
       "type": "Point",
       "coordinates":  [ -15.3866,27.9319,0 ]
    },
    "properties": {
    "id":3081,
    "ident":"GCLP",
    "type":"large_airport",
    "name":"Gran Canaria Airport",
    "continent":"AF",
    "iso_country":"ES",
    "iso_region":"ES-CN",
    "municipality":"Gran Canaria Island"
    }
  },
  {
    "type": "Feature",
    "geometry": {
       "type": "Point",
       "coordinates":  [ -13.6052,28.945499,0 ]
    },
    "properties": {
    "id":3082,
    "ident":"GCRR",
    "type":"large_airport",
    "name":"César Manrique-Lanzarote Airport",
    "continent":"AF",
    "iso_country":"ES",
    "iso_region":"ES-CN",
    "municipality":"San Bartolomé"
    }
  },
  {
    "type": "Feature",
    "geometry": {
       "type": "Point",
       "coordinates":  [ -16.5725,28.0445,0 ]
    },
    "properties": {
    "id":3083,
    "ident":"GCTS",
    "type":"large_airport",
    "name":"Tenerife Sur Airport",
    "continent":"AF",
    "iso_country":"ES",
    "iso_region":"ES-CN",
    "municipality":"Tenerife"
    }
  },
  {
    "type": "Feature",
    "geometry": {
       "type": "Point",
       "coordinates":  [ -13.1955,8.61644,0 ]
    },
    "properties": {
    "id":3095,
    "ident":"GFLL",
    "type":"large_airport",
    "name":"Lungi International Airport",
    "continent":"AF",
    "iso_country":"SL",
    "iso_region":"SL-N",
    "municipality":"Freetown (Lungi-Town)"
    }
  },
  {
    "type": "Feature",
    "geometry": {
       "type": "Point",
       "coordinates":  [ -10.3623,6.23379,0 ]
    },
    "properties": {
    "id":3099,
    "ident":"GLRB",
    "type":"large_airport",
    "name":"Roberts International Airport",
    "continent":"AF",
    "iso_country":"LR",
    "iso_region":"LR-MG",
    "municipality":"Monrovia"
    }
  },
  {
    "type": "Feature",
    "geometry": {
       "type": "Point",
       "coordinates":  [ -7.589970112,33.36750031,0 ]
    },
    "properties": {
    "id":3113,
    "ident":"GMMN",
    "type":"large_airport",
    "name":"Mohammed V International Airport",
    "continent":"AF",
    "iso_country":"MA",
    "iso_region":"MA-CAS",
    "municipality":"Casablanca"
    }
  },
  {
    "type": "Feature",
    "geometry": {
       "type": "Point",
       "coordinates":  [ -22.9494,16.7414,0 ]
    },
    "properties": {
    "id":3150,
    "ident":"GVAC",
    "type":"large_airport",
    "name":"Amílcar Cabral International Airport",
    "continent":"AF",
    "iso_country":"CV",
    "iso_region":"CV-B",
    "municipality":"Espargos"
    }
  },
  {
    "type": "Feature",
    "geometry": {
       "type": "Point",
       "coordinates":  [ 38.799301,8.97789,0 ]
    },
    "properties": {
    "id":3157,
    "ident":"HAAB",
    "type":"large_airport",
    "name":"Addis Ababa Bole International Airport",
    "continent":"AF",
    "iso_country":"ET",
    "iso_region":"ET-AA",
    "municipality":"Addis Ababa"
    }
  },
  {
    "type": "Feature",
    "geometry": {
       "type": "Point",
       "coordinates":  [ 43.1595,11.5473,0 ]
    },
    "properties": {
    "id":3174,
    "ident":"HDAM",
    "type":"large_airport",
    "name":"Djibouti-Ambouli Airport",
    "continent":"AF",
    "iso_country":"DJ",
    "iso_region":"DJ-DJ",
    "municipality":"Djibouti City"
    }
  },
  {
    "type": "Feature",
    "geometry": {
       "type": "Point",
       "coordinates":  [ 31.396694,30.111534,0 ]
    },
    "properties": {
    "id":3183,
    "ident":"HECA",
    "type":"large_airport",
    "name":"Cairo International Airport",
    "continent":"AF",
    "iso_country":"EG",
    "iso_region":"EG-C",
    "municipality":"Cairo"
    }
  },
  {
    "type": "Feature",
    "geometry": {
       "type": "Point",
       "coordinates":  [ 33.796692,27.176776,0 ]
    },
    "properties": {
    "id":3186,
    "ident":"HEGN",
    "type":"large_airport",
    "name":"Hurghada International Airport",
    "continent":"AF",
    "iso_country":"EG",
    "iso_region":"EG-BA",
    "municipality":"Hurghada"
    }
  },
  {
    "type": "Feature",
    "geometry": {
       "type": "Point",
       "coordinates":  [ 34.394717,27.977272,0 ]
    },
    "properties": {
    "id":3198,
    "ident":"HESH",
    "type":"large_airport",
    "name":"Sharm El Sheikh International Airport",
    "continent":"AF",
    "iso_country":"EG",
    "iso_region":"EG-JS",
    "municipality":"Sharm El Sheikh"
    }
  },
  {
    "type": "Feature",
    "geometry": {
       "type": "Point",
       "coordinates":  [ 36.92779922,-1.319239974,0 ]
    },
    "properties": {
    "id":3206,
    "ident":"HKJK",
    "type":"large_airport",
    "name":"Jomo Kenyatta International Airport",
    "continent":"AF",
    "iso_country":"KE",
    "iso_region":"KE-110",
    "municipality":"Nairobi"
    }
  },
  {
    "type": "Feature",
    "geometry": {
       "type": "Point",
       "coordinates":  [ 39.5942,-4.03483,0 ]
    },
    "properties": {
    "id":3213,
    "ident":"HKMO",
    "type":"large_airport",
    "name":"Moi International Airport",
    "continent":"AF",
    "iso_country":"KE",
    "iso_region":"KE-300",
    "municipality":"Mombasa"
    }
  },
  {
    "type": "Feature",
    "geometry": {
       "type": "Point",
       "coordinates":  [ 13.287878,32.89177,0 ]
    },
    "properties": {
    "id":3224,
    "ident":"HLLM",
    "type":"large_airport",
    "name":"Mitiga International Airport",
    "continent":"AF",
    "iso_country":"LY",
    "iso_region":"LY-TB",
    "municipality":"Tripoli"
    }
  },
  {
    "type": "Feature",
    "geometry": {
       "type": "Point",
       "coordinates":  [ 30.1395,-1.96863,0 ]
    },
    "properties": {
    "id":3237,
    "ident":"HRYR",
    "type":"large_airport",
    "name":"Kigali International Airport",
    "continent":"AF",
    "iso_country":"RW",
    "iso_region":"RW-01",
    "municipality":"Kigali"
    }
  },
  {
    "type": "Feature",
    "geometry": {
       "type": "Point",
       "coordinates":  [ 31.601101,4.87201,0 ]
    },
    "properties": {
    "id":3247,
    "ident":"HJJJ",
    "type":"large_airport",
    "name":"Juba International Airport",
    "continent":"AF",
    "iso_country":"SS",
    "iso_region":"SS-17",
    "municipality":"Juba"
    }
  },
  {
    "type": "Feature",
    "geometry": {
       "type": "Point",
       "coordinates":  [ 32.5532,15.5895,0 ]
    },
    "properties": {
    "id":3249,
    "ident":"HSSK",
    "type":"large_airport",
    "name":"Khartoum International Airport",
    "continent":"AF",
    "iso_country":"SD",
    "iso_region":"SD-03",
    "municipality":"Khartoum"
    }
  },
  {
    "type": "Feature",
    "geometry": {
       "type": "Point",
       "coordinates":  [ 39.202599,-6.87811,0 ]
    },
    "properties": {
    "id":3251,
    "ident":"HTDA",
    "type":"large_airport",
    "name":"Julius Nyerere International Airport",
    "continent":"AF",
    "iso_country":"TZ",
    "iso_region":"TZ-02",
    "municipality":"Dar es Salaam"
    }
  },
  {
    "type": "Feature",
    "geometry": {
       "type": "Point",
       "coordinates":  [ 39.224899,-6.22202,0 ]
    },
    "properties": {
    "id":3260,
    "ident":"HTZA",
    "type":"large_airport",
    "name":"Abeid Amani Karume International Airport",
    "continent":"AF",
    "iso_country":"TZ",
    "iso_region":"TZ-07",
    "municipality":"Zanzibar"
    }
  },
  {
    "type": "Feature",
    "geometry": {
       "type": "Point",
       "coordinates":  [ 32.443501,0.042386,0 ]
    },
    "properties": {
    "id":3263,
    "ident":"HUEN",
    "type":"large_airport",
    "name":"Entebbe International Airport",
    "continent":"AF",
    "iso_country":"UG",
    "iso_region":"UG-C",
    "municipality":"Kampala"
    }
  },
  {
    "type": "Feature",
    "geometry": {
       "type": "Point",
       "coordinates":  [ -76.866997,38.810799,0 ]
    },
    "properties": {
    "id":3364,
    "ident":"KADW",
    "type":"large_airport",
    "name":"Joint Base Andrews",
    "continent":"NA",
    "iso_country":"US",
    "iso_region":"US-MD",
    "municipality":"Camp Springs"
    }
  },
  {
    "type": "Feature",
    "geometry": {
       "type": "Point",
       "coordinates":  [ -84.428101,33.6367,0 ]
    },
    "properties": {
    "id":3384,
    "ident":"KATL",
    "type":"large_airport",
    "name":"Hartsfield Jackson Atlanta International Airport",
    "continent":"NA",
    "iso_country":"US",
    "iso_region":"US-GA",
    "municipality":"Atlanta"
    }
  },
  {
    "type": "Feature",
    "geometry": {
       "type": "Point",
       "coordinates":  [ -97.662015,30.197535,0 ]
    },
    "properties": {
    "id":3386,
    "ident":"KAUS",
    "type":"large_airport",
    "name":"Austin Bergstrom International Airport",
    "continent":"NA",
    "iso_country":"US",
    "iso_region":"US-TX",
    "municipality":"Austin"
    }
  },
  {
    "type": "Feature",
    "geometry": {
       "type": "Point",
       "coordinates":  [ -86.67819977,36.12450027,0 ]
    },
    "properties": {
    "id":3420,
    "ident":"KBNA",
    "type":"large_airport",
    "name":"Nashville International Airport",
    "continent":"NA",
    "iso_country":"US",
    "iso_region":"US-TN",
    "municipality":"Nashville"
    }
  },
  {
    "type": "Feature",
    "geometry": {
       "type": "Point",
       "coordinates":  [ -71.005203,42.3643,0 ]
    },
    "properties": {
    "id":3422,
    "ident":"KBOS",
    "type":"large_airport",
    "name":"Logan International Airport",
    "continent":"NA",
    "iso_country":"US",
    "iso_region":"US-MA",
    "municipality":"Boston"
    }
  },
  {
    "type": "Feature",
    "geometry": {
       "type": "Point",
       "coordinates":  [ -78.73220062,42.94049835,0 ]
    },
    "properties": {
    "id":3431,
    "ident":"KBUF",
    "type":"large_airport",
    "name":"Buffalo Niagara International Airport",
    "continent":"NA",
    "iso_country":"US",
    "iso_region":"US-NY",
    "municipality":"Buffalo"
    }
  },
  {
    "type": "Feature",
    "geometry": {
       "type": "Point",
       "coordinates":  [ -76.668297,39.1754,0 ]
    },
    "properties": {
    "id":3435,
    "ident":"KBWI",
    "type":"large_airport",
    "name":"Baltimore/Washington International Thurgood Marshall Airport",
    "continent":"NA",
    "iso_country":"US",
    "iso_region":"US-MD",
    "municipality":"Baltimore"
    }
  },
  {
    "type": "Feature",
    "geometry": {
       "type": "Point",
       "coordinates":  [ -81.84980011,41.4117012,0 ]
    },
    "properties": {
    "id":3454,
    "ident":"KCLE",
    "type":"large_airport",
    "name":"Cleveland Hopkins International Airport",
    "continent":"NA",
    "iso_country":"US",
    "iso_region":"US-OH",
    "municipality":"Cleveland"
    }
  },
  {
    "type": "Feature",
    "geometry": {
       "type": "Point",
       "coordinates":  [ -80.94309998,35.2140007,0 ]
    },
    "properties": {
    "id":3457,
    "ident":"KCLT",
    "type":"large_airport",
    "name":"Charlotte Douglas International Airport",
    "continent":"NA",
    "iso_country":"US",
    "iso_region":"US-NC",
    "municipality":"Charlotte"
    }
  },
  {
    "type": "Feature",
    "geometry": {
       "type": "Point",
       "coordinates":  [ -82.891899,39.998001,0 ]
    },
    "properties": {
    "id":3458,
    "ident":"KCMH",
    "type":"large_airport",
    "name":"John Glenn Columbus International Airport",
    "continent":"NA",
    "iso_country":"US",
    "iso_region":"US-OH",
    "municipality":"Columbus"
    }
  },
  {
    "type": "Feature",
    "geometry": {
       "type": "Point",
       "coordinates":  [ -84.667801,39.048801,0 ]
    },
    "properties": {
    "id":3471,
    "ident":"KCVG",
    "type":"large_airport",
    "name":"Cincinnati Northern Kentucky International Airport",
    "continent":"NA",
    "iso_country":"US",
    "iso_region":"US-KY",
    "municipality":"Cincinnati / Covington"
    }
  },
  {
    "type": "Feature",
    "geometry": {
       "type": "Point",
       "coordinates":  [ -77.037697,38.8521,0 ]
    },
    "properties": {
    "id":3483,
    "ident":"KDCA",
    "type":"large_airport",
    "name":"Ronald Reagan Washington National Airport",
    "continent":"NA",
    "iso_country":"US",
    "iso_region":"US-DC",
    "municipality":"Washington"
    }
  },
  {
    "type": "Feature",
    "geometry": {
       "type": "Point",
       "coordinates":  [ -104.6729965,39.86169815,0 ]
    },
    "properties": {
    "id":3486,
    "ident":"KDEN",
    "type":"large_airport",
    "name":"Denver International Airport",
    "continent":"NA",
    "iso_country":"US",
    "iso_region":"US-CO",
    "municipality":"Denver"
    }
  },
  {
    "type": "Feature",
    "geometry": {
       "type": "Point",
       "coordinates":  [ -97.038002,32.896801,0 ]
    },
    "properties": {
    "id":3488,
    "ident":"KDFW",
    "type":"large_airport",
    "name":"Dallas Fort Worth International Airport",
    "continent":"NA",
    "iso_country":"US",
    "iso_region":"US-TX",
    "municipality":"Dallas-Fort Worth"
    }
  },
  {
    "type": "Feature",
    "geometry": {
       "type": "Point",
       "coordinates":  [ -83.35340118,42.21239853,0 ]
    },
    "properties": {
    "id":3497,
    "ident":"KDTW",
    "type":"large_airport",
    "name":"Detroit Metropolitan Wayne County Airport",
    "continent":"NA",
    "iso_country":"US",
    "iso_region":"US-MI",
    "municipality":"Detroit"
    }
  },
  {
    "type": "Feature",
    "geometry": {
       "type": "Point",
       "coordinates":  [ -74.168701,40.692501,0 ]
    },
    "properties": {
    "id":3521,
    "ident":"KEWR",
    "type":"large_airport",
    "name":"Newark Liberty International Airport",
    "continent":"NA",
    "iso_country":"US",
    "iso_region":"US-NJ",
    "municipality":"Newark"
    }
  },
  {
    "type": "Feature",
    "geometry": {
       "type": "Point",
       "coordinates":  [ -80.152702,26.072599,0 ]
    },
    "properties": {
    "id":3531,
    "ident":"KFLL",
    "type":"large_airport",
    "name":"Fort Lauderdale Hollywood International Airport",
    "continent":"NA",
    "iso_country":"US",
    "iso_region":"US-FL",
    "municipality":"Fort Lauderdale"
    }
  },
  {
    "type": "Feature",
    "geometry": {
       "type": "Point",
       "coordinates":  [ -77.455803,38.9445,0 ]
    },
    "properties": {
    "id":3602,
    "ident":"KIAD",
    "type":"large_airport",
    "name":"Washington Dulles International Airport",
    "continent":"NA",
    "iso_country":"US",
    "iso_region":"US-VA",
    "municipality":"Dulles"
    }
  },
  {
    "type": "Feature",
    "geometry": {
       "type": "Point",
       "coordinates":  [ -95.34140015,29.9843998,0 ]
    },
    "properties": {
    "id":3604,
    "ident":"KIAH",
    "type":"large_airport",
    "name":"George Bush Intercontinental Houston Airport",
    "continent":"NA",
    "iso_country":"US",
    "iso_region":"US-TX",
    "municipality":"Houston"
    }
  },
  {
    "type": "Feature",
    "geometry": {
       "type": "Point",
       "coordinates":  [ -86.294403,39.7173,0 ]
    },
    "properties": {
    "id":3610,
    "ident":"KIND",
    "type":"large_airport",
    "name":"Indianapolis International Airport",
    "continent":"NA",
    "iso_country":"US",
    "iso_region":"US-IN",
    "municipality":"Indianapolis"
    }
  },
  {
    "type": "Feature",
    "geometry": {
       "type": "Point",
       "coordinates":  [ -81.68789673,30.49410057,0 ]
    },
    "properties": {
    "id":3620,
    "ident":"KJAX",
    "type":"large_airport",
    "name":"Jacksonville International Airport",
    "continent":"NA",
    "iso_country":"US",
    "iso_region":"US-FL",
    "municipality":"Jacksonville"
    }
  },
  {
    "type": "Feature",
    "geometry": {
       "type": "Point",
       "coordinates":  [ -73.779317,40.639447,0 ]
    },
    "properties": {
    "id":3622,
    "ident":"KJFK",
    "type":"large_airport",
    "name":"John F Kennedy International Airport",
    "continent":"NA",
    "iso_country":"US",
    "iso_region":"US-NY",
    "municipality":"New York"
    }
  },
  {
    "type": "Feature",
    "geometry": {
       "type": "Point",
       "coordinates":  [ -115.151817,36.083361,0 ]
    },
    "properties": {
    "id":3631,
    "ident":"KLAS",
    "type":"large_airport",
    "name":"Harry Reid International Airport",
    "continent":"NA",
    "iso_country":"US",
    "iso_region":"US-NV",
    "municipality":"Las Vegas"
    }
  },
  {
    "type": "Feature",
    "geometry": {
       "type": "Point",
       "coordinates":  [ -118.407997,33.942501,0 ]
    },
    "properties": {
    "id":3632,
    "ident":"KLAX",
    "type":"large_airport",
    "name":"Los Angeles International Airport",
    "continent":"NA",
    "iso_country":"US",
    "iso_region":"US-CA",
    "municipality":"Los Angeles"
    }
  },
  {
    "type": "Feature",
    "geometry": {
       "type": "Point",
       "coordinates":  [ -73.872597,40.777199,0 ]
    },
    "properties": {
    "id":3643,
    "ident":"KLGA",
    "type":"large_airport",
    "name":"La Guardia Airport",
    "continent":"NA",
    "iso_country":"US",
    "iso_region":"US-NY",
    "municipality":"New York"
    }
  },
  {
    "type": "Feature",
    "geometry": {
       "type": "Point",
       "coordinates":  [ -94.713898,39.2976,0 ]
    },
    "properties": {
    "id":3668,
    "ident":"KMCI",
    "type":"large_airport",
    "name":"Kansas City International Airport",
    "continent":"NA",
    "iso_country":"US",
    "iso_region":"US-MO",
    "municipality":"Kansas City"
    }
  },
  {
    "type": "Feature",
    "geometry": {
       "type": "Point",
       "coordinates":  [ -81.30899811,28.42939949,0 ]
    },
    "properties": {
    "id":3670,
    "ident":"KMCO",
    "type":"large_airport",
    "name":"Orlando International Airport",
    "continent":"NA",
    "iso_country":"US",
    "iso_region":"US-FL",
    "municipality":"Orlando"
    }
  },
  {
    "type": "Feature",
    "geometry": {
       "type": "Point",
       "coordinates":  [ -87.752403,41.785999,0 ]
    },
    "properties": {
    "id":3673,
    "ident":"KMDW",
    "type":"large_airport",
    "name":"Chicago Midway International Airport",
    "continent":"NA",
    "iso_country":"US",
    "iso_region":"US-IL",
    "municipality":"Chicago"
    }
  },
  {
    "type": "Feature",
    "geometry": {
       "type": "Point",
       "coordinates":  [ -89.97669983,35.04240036,0 ]
    },
    "properties": {
    "id":3675,
    "ident":"KMEM",
    "type":"large_airport",
    "name":"Memphis International Airport",
    "continent":"NA",
    "iso_country":"US",
    "iso_region":"US-TN",
    "municipality":"Memphis"
    }
  },
  {
    "type": "Feature",
    "geometry": {
       "type": "Point",
       "coordinates":  [ -80.29060364,25.79319954,0 ]
    },
    "properties": {
    "id":3685,
    "ident":"KMIA",
    "type":"large_airport",
    "name":"Miami International Airport",
    "continent":"NA",
    "iso_country":"US",
    "iso_region":"US-FL",
    "municipality":"Miami"
    }
  },
  {
    "type": "Feature",
    "geometry": {
       "type": "Point",
       "coordinates":  [ -87.89659882,42.94720078,0 ]
    },
    "properties": {
    "id":3690,
    "ident":"KMKE",
    "type":"large_airport",
    "name":"General Mitchell International Airport",
    "continent":"NA",
    "iso_country":"US",
    "iso_region":"US-WI",
    "municipality":"Milwaukee"
    }
  },
  {
    "type": "Feature",
    "geometry": {
       "type": "Point",
       "coordinates":  [ -93.221802,44.882,0 ]
    },
    "properties": {
    "id":3709,
    "ident":"KMSP",
    "type":"large_airport",
    "name":"Minneapolis–Saint Paul International Airport / Wold–Chamberlain Field",
    "continent":"NA",
    "iso_country":"US",
    "iso_region":"US-MN",
    "municipality":"Minneapolis"
    }
  },
  {
    "type": "Feature",
    "geometry": {
       "type": "Point",
       "coordinates":  [ -90.25800323,29.99340057,0 ]
    },
    "properties": {
    "id":3711,
    "ident":"KMSY",
    "type":"large_airport",
    "name":"Louis Armstrong New Orleans International Airport",
    "continent":"NA",
    "iso_country":"US",
    "iso_region":"US-LA",
    "municipality":"New Orleans"
    }
  },
  {
    "type": "Feature",
    "geometry": {
       "type": "Point",
       "coordinates":  [ -122.221001,37.721298,0 ]
    },
    "properties": {
    "id":3744,
    "ident":"KOAK",
    "type":"large_airport",
    "name":"Metropolitan Oakland International Airport",
    "continent":"NA",
    "iso_country":"US",
    "iso_region":"US-CA",
    "municipality":"Oakland"
    }
  },
  {
    "type": "Feature",
    "geometry": {
       "type": "Point",
       "coordinates":  [ -117.6009979,34.05599976,0 ]
    },
    "properties": {
    "id":3752,
    "ident":"KONT",
    "type":"large_airport",
    "name":"Ontario International Airport",
    "continent":"NA",
    "iso_country":"US",
    "iso_region":"US-CA",
    "municipality":"Ontario"
    }
  },
  {
    "type": "Feature",
    "geometry": {
       "type": "Point",
       "coordinates":  [ -87.9048,41.9786,0 ]
    },
    "properties": {
    "id":3754,
    "ident":"KORD",
    "type":"large_airport",
    "name":"Chicago O'Hare International Airport",
    "continent":"NA",
    "iso_country":"US",
    "iso_region":"US-IL",
    "municipality":"Chicago"
    }
  },
  {
    "type": "Feature",
    "geometry": {
       "type": "Point",
       "coordinates":  [ -80.09559631,26.68320084,0 ]
    },
    "properties": {
    "id":3766,
    "ident":"KPBI",
    "type":"large_airport",
    "name":"Palm Beach International Airport",
    "continent":"NA",
    "iso_country":"US",
    "iso_region":"US-FL",
    "municipality":"West Palm Beach"
    }
  },
  {
    "type": "Feature",
    "geometry": {
       "type": "Point",
       "coordinates":  [ -122.5979996,45.58869934,0 ]
    },
    "properties": {
    "id":3768,
    "ident":"KPDX",
    "type":"large_airport",
    "name":"Portland International Airport",
    "continent":"NA",
    "iso_country":"US",
    "iso_region":"US-OR",
    "municipality":"Portland"
    }
  },
  {
    "type": "Feature",
    "geometry": {
       "type": "Point",
       "coordinates":  [ -75.2410965,39.87189865,0 ]
    },
    "properties": {
    "id":3771,
    "ident":"KPHL",
    "type":"large_airport",
    "name":"Philadelphia International Airport",
    "continent":"NA",
    "iso_country":"US",
    "iso_region":"US-PA",
    "municipality":"Philadelphia"
    }
  },
  {
    "type": "Feature",
    "geometry": {
       "type": "Point",
       "coordinates":  [ -112.005905,33.435302,0 ]
    },
    "properties": {
    "id":3772,
    "ident":"KPHX",
    "type":"large_airport",
    "name":"Phoenix Sky Harbor International Airport",
    "continent":"NA",
    "iso_country":"US",
    "iso_region":"US-AZ",
    "municipality":"Phoenix"
    }
  },
  {
    "type": "Feature",
    "geometry": {
       "type": "Point",
       "coordinates":  [ -80.23290253,40.49150085,0 ]
    },
    "properties": {
    "id":3778,
    "ident":"KPIT",
    "type":"large_airport",
    "name":"Pittsburgh International Airport",
    "continent":"NA",
    "iso_country":"US",
    "iso_region":"US-PA",
    "municipality":"Pittsburgh"
    }
  },
  {
    "type": "Feature",
    "geometry": {
       "type": "Point",
       "coordinates":  [ -71.425668,41.725038,0 ]
    },
    "properties": {
    "id":3795,
    "ident":"KPVD",
    "type":"large_airport",
    "name":"Theodore Francis Green State Airport",
    "continent":"NA",
    "iso_country":"US",
    "iso_region":"US-RI",
    "municipality":"Warwick"
    }
  },
  {
    "type": "Feature",
    "geometry": {
       "type": "Point",
       "coordinates":  [ -70.309303,43.646198,0 ]
    },
    "properties": {
    "id":3796,
    "ident":"KPWM",
    "type":"large_airport",
    "name":"Portland International Jetport",
    "continent":"NA",
    "iso_country":"US",
    "iso_region":"US-ME",
    "municipality":"Portland"
    }
  },
  {
    "type": "Feature",
    "geometry": {
       "type": "Point",
       "coordinates":  [ -78.78749847,35.87760162,0 ]
    },
    "properties": {
    "id":3844,
    "ident":"KRDU",
    "type":"large_airport",
    "name":"Raleigh Durham International Airport",
    "continent":"NA",
    "iso_country":"US",
    "iso_region":"US-NC",
    "municipality":"Raleigh/Durham"
    }
  },
  {
    "type": "Feature",
    "geometry": {
       "type": "Point",
       "coordinates":  [ -77.31970215,37.50519943,0 ]
    },
    "properties": {
    "id":3847,
    "ident":"KRIC",
    "type":"large_airport",
    "name":"Richmond International Airport",
    "continent":"NA",
    "iso_country":"US",
    "iso_region":"US-VA",
    "municipality":"Richmond"
    }
  },
  {
    "type": "Feature",
    "geometry": {
       "type": "Point",
       "coordinates":  [ -119.7679977,39.49909973,0 ]
    },
    "properties": {
    "id":3853,
    "ident":"KRNO",
    "type":"large_airport",
    "name":"Reno Tahoe International Airport",
    "continent":"NA",
    "iso_country":"US",
    "iso_region":"US-NV",
    "municipality":"Reno"
    }
  },
  {
    "type": "Feature",
    "geometry": {
       "type": "Point",
       "coordinates":  [ -81.75520325,26.53619957,0 ]
    },
    "properties": {
    "id":3858,
    "ident":"KRSW",
    "type":"large_airport",
    "name":"Southwest Florida International Airport",
    "continent":"NA",
    "iso_country":"US",
    "iso_region":"US-FL",
    "municipality":"Fort Myers"
    }
  },
  {
    "type": "Feature",
    "geometry": {
       "type": "Point",
       "coordinates":  [ -117.1900024,32.73360062,0 ]
    },
    "properties": {
    "id":3862,
    "ident":"KSAN",
    "type":"large_airport",
    "name":"San Diego International Airport",
    "continent":"NA",
    "iso_country":"US",
    "iso_region":"US-CA",
    "municipality":"San Diego"
    }
  },
  {
    "type": "Feature",
    "geometry": {
       "type": "Point",
       "coordinates":  [ -98.469803,29.533701,0 ]
    },
    "properties": {
    "id":3863,
    "ident":"KSAT",
    "type":"large_airport",
    "name":"San Antonio International Airport",
    "continent":"NA",
    "iso_country":"US",
    "iso_region":"US-TX",
    "municipality":"San Antonio"
    }
  },
  {
    "type": "Feature",
    "geometry": {
       "type": "Point",
       "coordinates":  [ -81.20210266,32.12760162,0 ]
    },
    "properties": {
    "id":3864,
    "ident":"KSAV",
    "type":"large_airport",
    "name":"Savannah Hilton Head International Airport",
    "continent":"NA",
    "iso_country":"US",
    "iso_region":"US-GA",
    "municipality":"Savannah"
    }
  },
  {
    "type": "Feature",
    "geometry": {
       "type": "Point",
       "coordinates":  [ -85.736,38.1744,0 ]
    },
    "properties": {
    "id":3873,
    "ident":"KSDF",
    "type":"large_airport",
    "name":"Louisville Muhammad Ali International Airport",
    "continent":"NA",
    "iso_country":"US",
    "iso_region":"US-KY",
    "municipality":"Louisville"
    }
  },
  {
    "type": "Feature",
    "geometry": {
       "type": "Point",
       "coordinates":  [ -122.311134,47.449162,0 ]
    },
    "properties": {
    "id":3875,
    "ident":"KSEA",
    "type":"large_airport",
    "name":"Seattle–Tacoma International Airport",
    "continent":"NA",
    "iso_country":"US",
    "iso_region":"US-WA",
    "municipality":"Seattle"
    }
  },
  {
    "type": "Feature",
    "geometry": {
       "type": "Point",
       "coordinates":  [ -81.23750305,28.77759933,0 ]
    },
    "properties": {
    "id":3876,
    "ident":"KSFB",
    "type":"large_airport",
    "name":"Orlando Sanford International Airport",
    "continent":"NA",
    "iso_country":"US",
    "iso_region":"US-FL",
    "municipality":"Orlando"
    }
  },
  {
    "type": "Feature",
    "geometry": {
       "type": "Point",
       "coordinates":  [ -122.375,37.61899948,0 ]
    },
    "properties": {
    "id":3878,
    "ident":"KSFO",
    "type":"large_airport",
    "name":"San Francisco International Airport",
    "continent":"NA",
    "iso_country":"US",
    "iso_region":"US-CA",
    "municipality":"San Francisco"
    }
  },
  {
    "type": "Feature",
    "geometry": {
       "type": "Point",
       "coordinates":  [ -121.929188,37.362452,0 ]
    },
    "properties": {
    "id":3883,
    "ident":"KSJC",
    "type":"large_airport",
    "name":"Norman Y. Mineta San Jose International Airport",
    "continent":"NA",
    "iso_country":"US",
    "iso_region":"US-CA",
    "municipality":"San Jose"
    }
  },
  {
    "type": "Feature",
    "geometry": {
       "type": "Point",
       "coordinates":  [ -111.979746,40.785749,0 ]
    },
    "properties": {
    "id":3887,
    "ident":"KSLC",
    "type":"large_airport",
    "name":"Salt Lake City International Airport",
    "continent":"NA",
    "iso_country":"US",
    "iso_region":"US-UT",
    "municipality":"Salt Lake City"
    }
  },
  {
    "type": "Feature",
    "geometry": {
       "type": "Point",
       "coordinates":  [ -121.5910034,38.69540024,0 ]
    },
    "properties": {
    "id":3892,
    "ident":"KSMF",
    "type":"large_airport",
    "name":"Sacramento International Airport",
    "continent":"NA",
    "iso_country":"US",
    "iso_region":"US-CA",
    "municipality":"Sacramento"
    }
  },
  {
    "type": "Feature",
    "geometry": {
       "type": "Point",
       "coordinates":  [ -117.867996,33.675701,0 ]
    },
    "properties": {
    "id":3894,
    "ident":"KSNA",
    "type":"large_airport",
    "name":"John Wayne Airport-Orange County Airport",
    "continent":"NA",
    "iso_country":"US",
    "iso_region":"US-CA",
    "municipality":"Santa Ana"
    }
  },
  {
    "type": "Feature",
    "geometry": {
       "type": "Point",
       "coordinates":  [ -90.370003,38.748697,0 ]
    },
    "properties": {
    "id":3905,
    "ident":"KSTL",
    "type":"large_airport",
    "name":"St Louis Lambert International Airport",
    "continent":"NA",
    "iso_country":"US",
    "iso_region":"US-MO",
    "municipality":"St Louis"
    }
  },
  {
    "type": "Feature",
    "geometry": {
       "type": "Point",
       "coordinates":  [ -76.10630035,43.11119843,0 ]
    },
    "properties": {
    "id":3913,
    "ident":"KSYR",
    "type":"large_airport",
    "name":"Syracuse Hancock International Airport",
    "continent":"NA",
    "iso_country":"US",
    "iso_region":"US-NY",
    "municipality":"Syracuse"
    }
  },
  {
    "type": "Feature",
    "geometry": {
       "type": "Point",
       "coordinates":  [ -82.53320313,27.97550011,0 ]
    },
    "properties": {
    "id":3926,
    "ident":"KTPA",
    "type":"large_airport",
    "name":"Tampa International Airport",
    "continent":"NA",
    "iso_country":"US",
    "iso_region":"US-FL",
    "municipality":"Tampa"
    }
  },
  {
    "type": "Feature",
    "geometry": {
       "type": "Point",
       "coordinates":  [ -95.88809967,36.19839859,0 ]
    },
    "properties": {
    "id":3930,
    "ident":"KTUL",
    "type":"large_airport",
    "name":"Tulsa International Airport",
    "continent":"NA",
    "iso_country":"US",
    "iso_region":"US-OK",
    "municipality":"Tulsa"
    }
  },
  {
    "type": "Feature",
    "geometry": {
       "type": "Point",
       "coordinates":  [ 19.72060013,41.41469955,0 ]
    },
    "properties": {
    "id":3972,
    "ident":"LATI",
    "type":"large_airport",
    "name":"Tirana International Airport Mother Teresa",
    "continent":"EU",
    "iso_country":"AL",
    "iso_region":"AL-11",
    "municipality":"Tirana"
    }
  },
  {
    "type": "Feature",
    "geometry": {
       "type": "Point",
       "coordinates":  [ 27.51519966,42.56959915,0 ]
    },
    "properties": {
    "id":3974,
    "ident":"LBBG",
    "type":"large_airport",
    "name":"Burgas Airport",
    "continent":"EU",
    "iso_country":"BG",
    "iso_region":"BG-02",
    "municipality":"Burgas"
    }
  },
  {
    "type": "Feature",
    "geometry": {
       "type": "Point",
       "coordinates":  [ 23.41143608,42.69669342,0 ]
    },
    "properties": {
    "id":3977,
    "ident":"LBSF",
    "type":"large_airport",
    "name":"Sofia Airport",
    "continent":"EU",
    "iso_country":"BG",
    "iso_region":"BG-23",
    "municipality":"Sofia"
    }
  },
  {
    "type": "Feature",
    "geometry": {
       "type": "Point",
       "coordinates":  [ 27.8251,43.232101,0 ]
    },
    "properties": {
    "id":3979,
    "ident":"LBWN",
    "type":"large_airport",
    "name":"Varna Airport",
    "continent":"EU",
    "iso_country":"BG",
    "iso_region":"BG-03",
    "municipality":"Varna"
    }
  },
  {
    "type": "Feature",
    "geometry": {
       "type": "Point",
       "coordinates":  [ 33.624901,34.875099,0 ]
    },
    "properties": {
    "id":3980,
    "ident":"LCLK",
    "type":"large_airport",
    "name":"Larnaca International Airport",
    "continent":"AS",
    "iso_country":"CY",
    "iso_region":"CY-04",
    "municipality":"Larnaca"
    }
  },
  {
    "type": "Feature",
    "geometry": {
       "type": "Point",
       "coordinates":  [ 16.06879997,45.74290085,0 ]
    },
    "properties": {
    "id":3993,
    "ident":"LDZA",
    "type":"large_airport",
    "name":"Zagreb Airport",
    "continent":"EU",
    "iso_country":"HR",
    "iso_region":"HR-21",
    "municipality":"Zagreb"
    }
  },
  {
    "type": "Feature",
    "geometry": {
       "type": "Point",
       "coordinates":  [ -0.558156,38.2822,0 ]
    },
    "properties": {
    "id":3997,
    "ident":"LEAL",
    "type":"large_airport",
    "name":"Alicante-Elche Miguel Hernández Airport",
    "continent":"EU",
    "iso_country":"ES",
    "iso_region":"ES-VC",
    "municipality":"Alicante"
    }
  },
  {
    "type": "Feature",
    "geometry": {
       "type": "Point",
       "coordinates":  [ 2.07846,41.2971,0 ]
    },
    "properties": {
    "id":4004,
    "ident":"LEBL",
    "type":"large_airport",
    "name":"Josep Tarradellas Barcelona-El Prat Airport",
    "continent":"EU",
    "iso_country":"ES",
    "iso_region":"ES-CT",
    "municipality":"Barcelona"
    }
  },
  {
    "type": "Feature",
    "geometry": {
       "type": "Point",
       "coordinates":  [ 1.37312,38.872898,0 ]
    },
    "properties": {
    "id":4013,
    "ident":"LEIB",
    "type":"large_airport",
    "name":"Ibiza Airport",
    "continent":"EU",
    "iso_country":"ES",
    "iso_region":"ES-IB",
    "municipality":"Ibiza (Eivissa)"
    }
  },
  {
    "type": "Feature",
    "geometry": {
       "type": "Point",
       "coordinates":  [ -3.56264,40.471926,0 ]
    },
    "properties": {
    "id":4019,
    "ident":"LEMD",
    "type":"large_airport",
    "name":"Adolfo Suárez Madrid–Barajas Airport",
    "continent":"EU",
    "iso_country":"ES",
    "iso_region":"ES-MD",
    "municipality":"Madrid"
    }
  },
  {
    "type": "Feature",
    "geometry": {
       "type": "Point",
       "coordinates":  [ -4.49911,36.6749,0 ]
    },
    "properties": {
    "id":4020,
    "ident":"LEMG",
    "type":"large_airport",
    "name":"Málaga-Costa del Sol Airport",
    "continent":"EU",
    "iso_country":"ES",
    "iso_region":"ES-AN",
    "municipality":"Málaga"
    }
  },
  {
    "type": "Feature",
    "geometry": {
       "type": "Point",
       "coordinates":  [ 2.73881,39.551701,0 ]
    },
    "properties": {
    "id":4035,
    "ident":"LEPA",
    "type":"large_airport",
    "name":"Palma de Mallorca Airport",
    "continent":"EU",
    "iso_country":"ES",
    "iso_region":"ES-IB",
    "municipality":"Palma de Mallorca"
    }
  },
  {
    "type": "Feature",
    "geometry": {
       "type": "Point",
       "coordinates":  [ -8.41514,42.896301,0 ]
    },
    "properties": {
    "id":4038,
    "ident":"LEST",
    "type":"large_airport",
    "name":"Santiago-Rosalía de Castro Airport",
    "continent":"EU",
    "iso_country":"ES",
    "iso_region":"ES-GA",
    "municipality":"Santiago de Compostela"
    }
  },
  {
    "type": "Feature",
    "geometry": {
       "type": "Point",
       "coordinates":  [ -0.715556,44.8283,0 ]
    },
    "properties": {
    "id":4060,
    "ident":"LFBD",
    "type":"large_airport",
    "name":"Bordeaux-Mérignac Airport",
    "continent":"EU",
    "iso_country":"FR",
    "iso_region":"FR-NAQ",
    "municipality":"Bordeaux/Mérignac"
    }
  },
  {
    "type": "Feature",
    "geometry": {
       "type": "Point",
       "coordinates":  [ 1.36382,43.629101,0 ]
    },
    "properties": {
    "id":4070,
    "ident":"LFBO",
    "type":"large_airport",
    "name":"Toulouse-Blagnac Airport",
    "continent":"EU",
    "iso_country":"FR",
    "iso_region":"FR-OCC",
    "municipality":"Toulouse/Blagnac"
    }
  },
  {
    "type": "Feature",
    "geometry": {
       "type": "Point",
       "coordinates":  [ 5.081111,45.725556,0 ]
    },
    "properties": {
    "id":4137,
    "ident":"LFLL",
    "type":"large_airport",
    "name":"Lyon Saint-Exupéry Airport",
    "continent":"EU",
    "iso_country":"FR",
    "iso_region":"FR-ARA",
    "municipality":"Lyon"
    }
  },
  {
    "type": "Feature",
    "geometry": {
       "type": "Point",
       "coordinates":  [ 5.221424103,43.43927192,0 ]
    },
    "properties": {
    "id":4155,
    "ident":"LFML",
    "type":"large_airport",
    "name":"Marseille Provence Airport",
    "continent":"EU",
    "iso_country":"FR",
    "iso_region":"FR-PAC",
    "municipality":"Marseille"
    }
  },
  {
    "type": "Feature",
    "geometry": {
       "type": "Point",
       "coordinates":  [ 7.21587,43.658401,0 ]
    },
    "properties": {
    "id":4156,
    "ident":"LFMN",
    "type":"large_airport",
    "name":"Nice-Côte d'Azur Airport",
    "continent":"EU",
    "iso_country":"FR",
    "iso_region":"FR-PAC",
    "municipality":"Nice"
    }
  },
  {
    "type": "Feature",
    "geometry": {
       "type": "Point",
       "coordinates":  [ 2.55,49.012798,0 ]
    },
    "properties": {
    "id":4185,
    "ident":"LFPG",
    "type":"large_airport",
    "name":"Charles de Gaulle International Airport",
    "continent":"EU",
    "iso_country":"FR",
    "iso_region":"FR-IDF",
    "municipality":"Paris"
    }
  },
  {
    "type": "Feature",
    "geometry": {
       "type": "Point",
       "coordinates":  [ 2.37944,48.72333,0 ]
    },
    "properties": {
    "id":4189,
    "ident":"LFPO",
    "type":"large_airport",
    "name":"Paris-Orly Airport",
    "continent":"EU",
    "iso_country":"FR",
    "iso_region":"FR-IDF",
    "municipality":"Paris"
    }
  },
  {
    "type": "Feature",
    "geometry": {
       "type": "Point",
       "coordinates":  [ 7.529167,47.59,0 ]
    },
    "properties": {
    "id":4226,
    "ident":"LFSB",
    "type":"large_airport",
    "name":"EuroAirport Basel-Mulhouse-Freiburg Airport",
    "continent":"EU",
    "iso_country":"FR",
    "iso_region":"FR-GES",
    "municipality":"Bâle/Mulhouse"
    }
  },
  {
    "type": "Feature",
    "geometry": {
       "type": "Point",
       "coordinates":  [ 23.9445,37.936401,0 ]
    },
    "properties": {
    "id":4251,
    "ident":"LGAV",
    "type":"large_airport",
    "name":"Athens Eleftherios Venizelos International Airport",
    "continent":"EU",
    "iso_country":"GR",
    "iso_region":"GR-I",
    "municipality":"Athens"
    }
  },
  {
    "type": "Feature",
    "geometry": {
       "type": "Point",
       "coordinates":  [ 19.261093,47.42976,0 ]
    },
    "properties": {
    "id":4296,
    "ident":"LHBP",
    "type":"large_airport",
    "name":"Budapest Liszt Ferenc International Airport",
    "continent":"EU",
    "iso_country":"HU",
    "iso_region":"HU-PE",
    "municipality":"Budapest"
    }
  },
  {
    "type": "Feature",
    "geometry": {
       "type": "Point",
       "coordinates":  [ 16.760599,41.138901,0 ]
    },
    "properties": {
    "id":4310,
    "ident":"LIBD",
    "type":"large_airport",
    "name":"Bari Karol Wojtyła Airport",
    "continent":"EU",
    "iso_country":"IT",
    "iso_region":"IT-75",
    "municipality":"Bari"
    }
  },
  {
    "type": "Feature",
    "geometry": {
       "type": "Point",
       "coordinates":  [ 17.947001,40.6576,0 ]
    },
    "properties": {
    "id":4315,
    "ident":"LIBR",
    "type":"large_airport",
    "name":"Brindisi Airport",
    "continent":"EU",
    "iso_country":"IT",
    "iso_region":"IT-75",
    "municipality":"Brindisi"
    }
  },
  {
    "type": "Feature",
    "geometry": {
       "type": "Point",
       "coordinates":  [ 15.0664,37.466801,0 ]
    },
    "properties": {
    "id":4318,
    "ident":"LICC",
    "type":"large_airport",
    "name":"Catania-Fontanarossa Airport",
    "continent":"EU",
    "iso_country":"IT",
    "iso_region":"IT-82",
    "municipality":"Catania"
    }
  },
  {
    "type": "Feature",
    "geometry": {
       "type": "Point",
       "coordinates":  [ 13.091,38.175999,0 ]
    },
    "properties": {
    "id":4321,
    "ident":"LICJ",
    "type":"large_airport",
    "name":"Falcone–Borsellino Airport",
    "continent":"EU",
    "iso_country":"IT",
    "iso_region":"IT-82",
    "municipality":"Palermo"
    }
  },
  {
    "type": "Feature",
    "geometry": {
       "type": "Point",
       "coordinates":  [ 9.05428,39.251499,0 ]
    },
    "properties": {
    "id":4332,
    "ident":"LIEE",
    "type":"large_airport",
    "name":"Cagliari Elmas Airport",
    "continent":"EU",
    "iso_country":"IT",
    "iso_region":"IT-88",
    "municipality":"Cagliari"
    }
  },
  {
    "type": "Feature",
    "geometry": {
       "type": "Point",
       "coordinates":  [ 8.72811,45.6306,0 ]
    },
    "properties": {
    "id":4340,
    "ident":"LIMC",
    "type":"large_airport",
    "name":"Malpensa International Airport",
    "continent":"EU",
    "iso_country":"IT",
    "iso_region":"IT-25",
    "municipality":"Milan"
    }
  },
  {
    "type": "Feature",
    "geometry": {
       "type": "Point",
       "coordinates":  [ 9.70417,45.673901,0 ]
    },
    "properties": {
    "id":4341,
    "ident":"LIME",
    "type":"large_airport",
    "name":"Milan Bergamo Airport",
    "continent":"EU",
    "iso_country":"IT",
    "iso_region":"IT-25",
    "municipality":"Milan"
    }
  },
  {
    "type": "Feature",
    "geometry": {
       "type": "Point",
       "coordinates":  [ 7.64963,45.200802,0 ]
    },
    "properties": {
    "id":4342,
    "ident":"LIMF",
    "type":"large_airport",
    "name":"Turin Airport",
    "continent":"EU",
    "iso_country":"IT",
    "iso_region":"IT-21",
    "municipality":"Torino"
    }
  },
  {
    "type": "Feature",
    "geometry": {
       "type": "Point",
       "coordinates":  [ 11.2887,44.5354,0 ]
    },
    "properties": {
    "id":4354,
    "ident":"LIPE",
    "type":"large_airport",
    "name":"Bologna Guglielmo Marconi Airport",
    "continent":"EU",
    "iso_country":"IT",
    "iso_region":"IT-45",
    "municipality":"Bologna"
    }
  },
  {
    "type": "Feature",
    "geometry": {
       "type": "Point",
       "coordinates":  [ 10.887303,45.394955,0 ]
    },
    "properties": {
    "id":4366,
    "ident":"LIPX",
    "type":"large_airport",
    "name":"Verona-Villafranca Valerio Catullo Airport",
    "continent":"EU",
    "iso_country":"IT",
    "iso_region":"IT-34",
    "municipality":"Villafranca di Verona"
    }
  },
  {
    "type": "Feature",
    "geometry": {
       "type": "Point",
       "coordinates":  [ 12.3519,45.505299,0 ]
    },
    "properties": {
    "id":4368,
    "ident":"LIPZ",
    "type":"large_airport",
    "name":"Venice Marco Polo Airport",
    "continent":"EU",
    "iso_country":"IT",
    "iso_region":"IT-34",
    "municipality":"Venice"
    }
  },
  {
    "type": "Feature",
    "geometry": {
       "type": "Point",
       "coordinates":  [ 12.251998,41.804532,0 ]
    },
    "properties": {
    "id":4372,
    "ident":"LIRF",
    "type":"large_airport",
    "name":"Rome–Fiumicino Leonardo da Vinci International Airport",
    "continent":"EU",
    "iso_country":"IT",
    "iso_region":"IT-62",
    "municipality":"Rome"
    }
  },
  {
    "type": "Feature",
    "geometry": {
       "type": "Point",
       "coordinates":  [ 14.2908,40.886002,0 ]
    },
    "properties": {
    "id":4378,
    "ident":"LIRN",
    "type":"large_airport",
    "name":"Naples International Airport",
    "continent":"EU",
    "iso_country":"IT",
    "iso_region":"IT-72",
    "municipality":"Napoli"
    }
  },
  {
    "type": "Feature",
    "geometry": {
       "type": "Point",
       "coordinates":  [ 10.3927,43.683899,0 ]
    },
    "properties": {
    "id":4379,
    "ident":"LIRP",
    "type":"large_airport",
    "name":"Pisa International Airport",
    "continent":"EU",
    "iso_country":"IT",
    "iso_region":"IT-52",
    "municipality":"Pisa"
    }
  },
  {
    "type": "Feature",
    "geometry": {
       "type": "Point",
       "coordinates":  [ 14.4576,46.223701,0 ]
    },
    "properties": {
    "id":4386,
    "ident":"LJLJ",
    "type":"large_airport",
    "name":"Ljubljana Jože Pučnik Airport",
    "continent":"EU",
    "iso_country":"SI",
    "iso_region":"SI-061",
    "municipality":"Ljubljana"
    }
  },
  {
    "type": "Feature",
    "geometry": {
       "type": "Point",
       "coordinates":  [ 14.26,50.1008,0 ]
    },
    "properties": {
    "id":4408,
    "ident":"LKPR",
    "type":"large_airport",
    "name":"Václav Havel Airport Prague",
    "continent":"EU",
    "iso_country":"CZ",
    "iso_region":"CZ-PR",
    "municipality":"Prague"
    }
  },
  {
    "type": "Feature",
    "geometry": {
       "type": "Point",
       "coordinates":  [ 34.88669968,32.01139832,0 ]
    },
    "properties": {
    "id":4411,
    "ident":"LLBG",
    "type":"large_airport",
    "name":"Ben Gurion International Airport",
    "continent":"AS",
    "iso_country":"IL",
    "iso_region":"IL-M",
    "municipality":"Tel Aviv"
    }
  },
  {
    "type": "Feature",
    "geometry": {
       "type": "Point",
       "coordinates":  [ 14.4775,35.857498,0 ]
    },
    "properties": {
    "id":4427,
    "ident":"LMML",
    "type":"large_airport",
    "name":"Malta International Airport",
    "continent":"EU",
    "iso_country":"MT",
    "iso_region":"MT-25",
    "municipality":"Valletta"
    }
  },
  {
    "type": "Feature",
    "geometry": {
       "type": "Point",
       "coordinates":  [ 16.5697,48.110298,0 ]
    },
    "properties": {
    "id":4434,
    "ident":"LOWW",
    "type":"large_airport",
    "name":"Vienna International Airport",
    "continent":"EU",
    "iso_country":"AT",
    "iso_region":"AT-9",
    "municipality":"Vienna"
    }
  },
  {
    "type": "Feature",
    "geometry": {
       "type": "Point",
       "coordinates":  [ -7.965909958,37.01440048,0 ]
    },
    "properties": {
    "id":4448,
    "ident":"LPFR",
    "type":"large_airport",
    "name":"Faro Airport",
    "continent":"EU",
    "iso_country":"PT",
    "iso_region":"PT-08",
    "municipality":"Faro"
    }
  },
  {
    "type": "Feature",
    "geometry": {
       "type": "Point",
       "coordinates":  [ -25.69790077,37.74119949,0 ]
    },
    "properties": {
    "id":4456,
    "ident":"LPPD",
    "type":"large_airport",
    "name":"João Paulo II Airport",
    "continent":"EU",
    "iso_country":"PT",
    "iso_region":"PT-20",
    "municipality":"Ponta Delgada"
    }
  },
  {
    "type": "Feature",
    "geometry": {
       "type": "Point",
       "coordinates":  [ -8.681389809,41.24810028,0 ]
    },
    "properties": {
    "id":4459,
    "ident":"LPPR",
    "type":"large_airport",
    "name":"Francisco de Sá Carneiro Airport",
    "continent":"EU",
    "iso_country":"PT",
    "iso_region":"PT-13",
    "municipality":"Porto"
    }
  },
  {
    "type": "Feature",
    "geometry": {
       "type": "Point",
       "coordinates":  [ -9.13592,38.7813,0 ]
    },
    "properties": {
    "id":4461,
    "ident":"LPPT",
    "type":"large_airport",
    "name":"Humberto Delgado Airport (Lisbon Portela Airport)",
    "continent":"EU",
    "iso_country":"PT",
    "iso_region":"PT-11",
    "municipality":"Lisbon"
    }
  },
  {
    "type": "Feature",
    "geometry": {
       "type": "Point",
       "coordinates":  [ 26.085,44.571111,0 ]
    },
    "properties": {
    "id":4482,
    "ident":"LROP",
    "type":"large_airport",
    "name":"Henri Coandă International Airport",
    "continent":"EU",
    "iso_country":"RO",
    "iso_region":"RO-IF",
    "municipality":"Bucharest"
    }
  },
  {
    "type": "Feature",
    "geometry": {
       "type": "Point",
       "coordinates":  [ 6.108950138,46.23809814,0 ]
    },
    "properties": {
    "id":4490,
    "ident":"LSGG",
    "type":"large_airport",
    "name":"Geneva Cointrin International Airport",
    "continent":"EU",
    "iso_country":"CH",
    "iso_region":"CH-GE",
    "municipality":"Geneva"
    }
  },
  {
    "type": "Feature",
    "geometry": {
       "type": "Point",
       "coordinates":  [ 8.548056,47.458056,0 ]
    },
    "properties": {
    "id":4505,
    "ident":"LSZH",
    "type":"large_airport",
    "name":"Zürich Airport",
    "continent":"EU",
    "iso_country":"CH",
    "iso_region":"CH-ZH",
    "municipality":"Zurich"
    }
  },
  {
    "type": "Feature",
    "geometry": {
       "type": "Point",
       "coordinates":  [ 32.99509811,40.12810135,0 ]
    },
    "properties": {
    "id":4509,
    "ident":"LTAC",
    "type":"large_airport",
    "name":"Esenboğa International Airport",
    "continent":"AS",
    "iso_country":"TR",
    "iso_region":"TR-06",
    "municipality":"Ankara"
    }
  },
  {
    "type": "Feature",
    "geometry": {
       "type": "Point",
       "coordinates":  [ 30.800501,36.898701,0 ]
    },
    "properties": {
    "id":4515,
    "ident":"LTAI",
    "type":"large_airport",
    "name":"Antalya International Airport",
    "continent":"AS",
    "iso_country":"TR",
    "iso_region":"TR-07",
    "municipality":"Antalya"
    }
  },
  {
    "type": "Feature",
    "geometry": {
       "type": "Point",
       "coordinates":  [ 28.823714,40.971913,0 ]
    },
    "properties": {
    "id":4528,
    "ident":"LTBA",
    "type":"large_airport",
    "name":"İstanbul Atatürk Airport",
    "continent":"EU",
    "iso_country":"TR",
    "iso_region":"TR-34",
    "municipality":"Bakırköy, Istanbul"
    }
  },
  {
    "type": "Feature",
    "geometry": {
       "type": "Point",
       "coordinates":  [ 27.157,38.2924,0 ]
    },
    "properties": {
    "id":4533,
    "ident":"LTBJ",
    "type":"large_airport",
    "name":"Adnan Menderes International Airport",
    "continent":"AS",
    "iso_country":"TR",
    "iso_region":"TR-35",
    "municipality":"İzmir"
    }
  },
  {
    "type": "Feature",
    "geometry": {
       "type": "Point",
       "coordinates":  [ 28.79249954,36.71310043,0 ]
    },
    "properties": {
    "id":4542,
    "ident":"LTBS",
    "type":"large_airport",
    "name":"Dalaman International Airport",
    "continent":"AS",
    "iso_country":"TR",
    "iso_region":"TR-48",
    "municipality":"Dalaman"
    }
  },
  {
    "type": "Feature",
    "geometry": {
       "type": "Point",
       "coordinates":  [ 27.66430092,37.25059891,0 ]
    },
    "properties": {
    "id":4567,
    "ident":"LTFE",
    "type":"large_airport",
    "name":"Milas Bodrum International Airport",
    "continent":"AS",
    "iso_country":"TR",
    "iso_region":"TR-48",
    "municipality":"Bodrum"
    }
  },
  {
    "type": "Feature",
    "geometry": {
       "type": "Point",
       "coordinates":  [ 29.3092,40.898602,0 ]
    },
    "properties": {
    "id":4569,
    "ident":"LTFJ",
    "type":"large_airport",
    "name":"Istanbul Sabiha Gökçen International Airport",
    "continent":"AS",
    "iso_country":"TR",
    "iso_region":"TR-34",
    "municipality":"Pendik, Istanbul"
    }
  },
  {
    "type": "Feature",
    "geometry": {
       "type": "Point",
       "coordinates":  [ 21.621401,41.961601,0 ]
    },
    "properties": {
    "id":4573,
    "ident":"LWSK",
    "type":"large_airport",
    "name":"Skopje International Airport",
    "continent":"EU",
    "iso_country":"MK",
    "iso_region":"MK-004",
    "municipality":"Skopje"
    }
  },
  {
    "type": "Feature",
    "geometry": {
       "type": "Point",
       "coordinates":  [ 20.309099,44.818401,0 ]
    },
    "properties": {
    "id":4610,
    "ident":"LYBE",
    "type":"large_airport",
    "name":"Belgrade Nikola Tesla Airport",
    "continent":"EU",
    "iso_country":"RS",
    "iso_region":"RS-00",
    "municipality":"Belgrade"
    }
  },
  {
    "type": "Feature",
    "geometry": {
       "type": "Point",
       "coordinates":  [ 19.2519,42.359402,0 ]
    },
    "properties": {
    "id":4613,
    "ident":"LYPG",
    "type":"large_airport",
    "name":"Podgorica Airport / Podgorica Golubovci Airbase",
    "continent":"EU",
    "iso_country":"ME",
    "iso_region":"ME-16",
    "municipality":"Podgorica"
    }
  },
  {
    "type": "Feature",
    "geometry": {
       "type": "Point",
       "coordinates":  [ 17.21269989,48.17020035,0 ]
    },
    "properties": {
    "id":4617,
    "ident":"LZIB",
    "type":"large_airport",
    "name":"M. R. Štefánik Airport",
    "continent":"EU",
    "iso_country":"SK",
    "iso_region":"SK-BL",
    "municipality":"Bratislava"
    }
  },
  {
    "type": "Feature",
    "geometry": {
       "type": "Point",
       "coordinates":  [ -72.268321,21.773697,0 ]
    },
    "properties": {
    "id":4628,
    "ident":"MBPV",
    "type":"large_airport",
    "name":"Providenciales International Airport",
    "continent":"NA",
    "iso_country":"TC",
    "iso_region":"TC-PR",
    "municipality":"Providenciales"
    }
  },
  {
    "type": "Feature",
    "geometry": {
       "type": "Point",
       "coordinates":  [ -68.36340332,18.56739998,0 ]
    },
    "properties": {
    "id":4636,
    "ident":"MDPC",
    "type":"large_airport",
    "name":"Punta Cana International Airport",
    "continent":"NA",
    "iso_country":"DO",
    "iso_region":"DO-11",
    "municipality":"Punta Cana"
    }
  },
  {
    "type": "Feature",
    "geometry": {
       "type": "Point",
       "coordinates":  [ -69.66889954,18.42970085,0 ]
    },
    "properties": {
    "id":4638,
    "ident":"MDSD",
    "type":"large_airport",
    "name":"Las Américas International Airport",
    "continent":"NA",
    "iso_country":"DO",
    "iso_region":"DO-01",
    "municipality":"Santo Domingo"
    }
  },
  {
    "type": "Feature",
    "geometry": {
       "type": "Point",
       "coordinates":  [ -90.527496,14.5833,0 ]
    },
    "properties": {
    "id":4644,
    "ident":"MGGT",
    "type":"large_airport",
    "name":"La Aurora Airport",
    "continent":"NA",
    "iso_country":"GT",
    "iso_region":"GT-GU",
    "municipality":"Guatemala City"
    }
  },
  {
    "type": "Feature",
    "geometry": {
       "type": "Point",
       "coordinates":  [ -76.78749847,17.93569946,0 ]
    },
    "properties": {
    "id":4680,
    "ident":"MKJP",
    "type":"large_airport",
    "name":"Norman Manley International Airport",
    "continent":"NA",
    "iso_country":"JM",
    "iso_region":"JM-01",
    "municipality":"Kingston"
    }
  },
  {
    "type": "Feature",
    "geometry": {
       "type": "Point",
       "coordinates":  [ -99.755473,16.762118,0 ]
    },
    "properties": {
    "id":4688,
    "ident":"MMAA",
    "type":"large_airport",
    "name":"Aeropuerto Internacional Juan N. Álvarez",
    "continent":"NA",
    "iso_country":"MX",
    "iso_region":"MX-GRO",
    "municipality":"Ciudad de Acapulco"
    }
  },
  {
    "type": "Feature",
    "geometry": {
       "type": "Point",
       "coordinates":  [ -86.930287,20.511425,0 ]
    },
    "properties": {
    "id":4706,
    "ident":"MMCZ",
    "type":"large_airport",
    "name":"Aeropuerto Internacional de Cozumel",
    "continent":"NA",
    "iso_country":"MX",
    "iso_region":"MX-ROO",
    "municipality":"Ciudad de Cozumel"
    }
  },
  {
    "type": "Feature",
    "geometry": {
       "type": "Point",
       "coordinates":  [ -104.533904,24.125908,0 ]
    },
    "properties": {
    "id":4707,
    "ident":"MMDO",
    "type":"large_airport",
    "name":"Aeropuerto Internacional Gral, Guadalupe Victoria",
    "continent":"NA",
    "iso_country":"MX",
    "iso_region":"MX-DUR",
    "municipality":"Ciudad de Durango"
    }
  },
  {
    "type": "Feature",
    "geometry": {
       "type": "Point",
       "coordinates":  [ -103.301557,20.52504,0 ]
    },
    "properties": {
    "id":4710,
    "ident":"MMGL",
    "type":"large_airport",
    "name":"Aeropuerto Internacional Miguel Hidalgo",
    "continent":"NA",
    "iso_country":"MX",
    "iso_region":"MX-JAL",
    "municipality":"Ciudad de Tlajomulco de Zúñiga"
    }
  },
  {
    "type": "Feature",
    "geometry": {
       "type": "Point",
       "coordinates":  [ -111.0479965,29.09589958,0 ]
    },
    "properties": {
    "id":4713,
    "ident":"MMHO",
    "type":"large_airport",
    "name":"General Ignacio P. Garcia International Airport",
    "continent":"NA",
    "iso_country":"MX",
    "iso_region":"MX-SON",
    "municipality":"Hermosillo"
    }
  },
  {
    "type": "Feature",
    "geometry": {
       "type": "Point",
       "coordinates":  [ -101.478825,20.985813,0 ]
    },
    "properties": {
    "id":4722,
    "ident":"MMLO",
    "type":"large_airport",
    "name":"Aeropuerto Internacional Del Bajío",
    "continent":"NA",
    "iso_country":"MX",
    "iso_region":"MX-GUA",
    "municipality":"Ciudad de Silao"
    }
  },
  {
    "type": "Feature",
    "geometry": {
       "type": "Point",
       "coordinates":  [ -89.662621,20.933384,0 ]
    },
    "properties": {
    "id":4726,
    "ident":"MMMD",
    "type":"large_airport",
    "name":"Aeropuerto Internacional Manuel Crescencio Rejón",
    "continent":"NA",
    "iso_country":"MX",
    "iso_region":"MX-YUC",
    "municipality":"Ciudad de Mérida"
    }
  },
  {
    "type": "Feature",
    "geometry": {
       "type": "Point",
       "coordinates":  [ -99.082432,19.435433,0 ]
    },
    "properties": {
    "id":4731,
    "ident":"MMMX",
    "type":"large_airport",
    "name":"Aeropuerto Internacional Lic. Benito Juárez",
    "continent":"NA",
    "iso_country":"MX",
    "iso_region":"MX-DIF",
    "municipality":"Ciudad de México"
    }
  },
  {
    "type": "Feature",
    "geometry": {
       "type": "Point",
       "coordinates":  [ -100.113602,25.778561,0 ]
    },
    "properties": {
    "id":4732,
    "ident":"MMMY",
    "type":"large_airport",
    "name":"Aeropuerto Internacional Gral. Mariano Escobedo",
    "continent":"NA",
    "iso_country":"MX",
    "iso_region":"MX-NLE",
    "municipality":"Ciudad de Apodaca"
    }
  },
  {
    "type": "Feature",
    "geometry": {
       "type": "Point",
       "coordinates":  [ -106.270151,23.166689,0 ]
    },
    "properties": {
    "id":4733,
    "ident":"MMMZ",
    "type":"large_airport",
    "name":"Aeropuerto Internacional Gral. Rafael Buelna",
    "continent":"NA",
    "iso_country":"MX",
    "iso_region":"MX-SIN",
    "municipality":"Ciudad de Mazatlàn"
    }
  },
  {
    "type": "Feature",
    "geometry": {
       "type": "Point",
       "coordinates":  [ -105.246685,20.679746,0 ]
    },
    "properties": {
    "id":4745,
    "ident":"MMPR",
    "type":"large_airport",
    "name":"Aeropuerto Internacional Lic. Gustavo Díaz Ordaz",
    "continent":"NA",
    "iso_country":"MX",
    "iso_region":"MX-JAL",
    "municipality":"Ciudad de Puerto Vallarta"
    }
  },
  {
    "type": "Feature",
    "geometry": {
       "type": "Point",
       "coordinates":  [ -109.716811,23.15642,0 ]
    },
    "properties": {
    "id":4750,
    "ident":"MMSD",
    "type":"large_airport",
    "name":"Aeropuerto Internacional de Los Cabos",
    "continent":"NA",
    "iso_country":"MX",
    "iso_region":"MX-BCS",
    "municipality":"Ciudad de San José del Cabo"
    }
  },
  {
    "type": "Feature",
    "geometry": {
       "type": "Point",
       "coordinates":  [ -116.975856,32.545963,0 ]
    },
    "properties": {
    "id":4757,
    "ident":"MMTJ",
    "type":"large_airport",
    "name":"Aeropuerto Internacional Gral. Abelardo Rodriguez",
    "continent":"NA",
    "iso_country":"MX",
    "iso_region":"MX-BCN",
    "municipality":"Ciudad de Tijuana"
    }
  },
  {
    "type": "Feature",
    "geometry": {
       "type": "Point",
       "coordinates":  [ -99.570358,19.338196,0 ]
    },
    "properties": {
    "id":4760,
    "ident":"MMTO",
    "type":"large_airport",
    "name":"Aeropuerto Internacional Adolfo López Mateos",
    "continent":"NA",
    "iso_country":"MX",
    "iso_region":"MX-MEX",
    "municipality":"Ciudad de Toluca"
    }
  },
  {
    "type": "Feature",
    "geometry": {
       "type": "Point",
       "coordinates":  [ -86.874304,21.039444,0 ]
    },
    "properties": {
    "id":4762,
    "ident":"MMUN",
    "type":"large_airport",
    "name":"Aeropuerto Internacional de Cancún",
    "continent":"NA",
    "iso_country":"MX",
    "iso_region":"MX-ROO",
    "municipality":"Ciudad de Cancún"
    }
  },
  {
    "type": "Feature",
    "geometry": {
       "type": "Point",
       "coordinates":  [ -79.38349915,9.071359634,0 ]
    },
    "properties": {
    "id":4793,
    "ident":"MPTO",
    "type":"large_airport",
    "name":"Tocumen International Airport",
    "continent":"NA",
    "iso_country":"PA",
    "iso_region":"PA-8",
    "municipality":"Tocumen"
    }
  },
  {
    "type": "Feature",
    "geometry": {
       "type": "Point",
       "coordinates":  [ -85.544403,10.5933,0 ]
    },
    "properties": {
    "id":4806,
    "ident":"MRLB",
    "type":"large_airport",
    "name":"Guanacaste Airport",
    "continent":"NA",
    "iso_country":"CR",
    "iso_region":"CR-G",
    "municipality":"Liberia"
    }
  },
  {
    "type": "Feature",
    "geometry": {
       "type": "Point",
       "coordinates":  [ -89.055702,13.4409,0 ]
    },
    "properties": {
    "id":4820,
    "ident":"MSLP",
    "type":"large_airport",
    "name":"Monseñor Óscar Arnulfo Romero International Airport",
    "continent":"NA",
    "iso_country":"SV",
    "iso_region":"SV-PA",
    "municipality":"San Salvador (San Luis Talpa)"
    }
  },
  {
    "type": "Feature",
    "geometry": {
       "type": "Point",
       "coordinates":  [ -72.292503,18.58,0 ]
    },
    "properties": {
    "id":4825,
    "ident":"MTPP",
    "type":"large_airport",
    "name":"Toussaint Louverture International Airport",
    "continent":"NA",
    "iso_country":"HT",
    "iso_region":"HT-OU",
    "municipality":"Port-au-Prince"
    }
  },
  {
    "type": "Feature",
    "geometry": {
       "type": "Point",
       "coordinates":  [ -82.40910339,22.98920059,0 ]
    },
    "properties": {
    "id":4839,
    "ident":"MUHA",
    "type":"large_airport",
    "name":"José Martí International Airport",
    "continent":"NA",
    "iso_country":"CU",
    "iso_region":"CU-03",
    "municipality":"Havana"
    }
  },
  {
    "type": "Feature",
    "geometry": {
       "type": "Point",
       "coordinates":  [ -81.435303,23.034401,0 ]
    },
    "properties": {
    "id":4859,
    "ident":"MUVR",
    "type":"large_airport",
    "name":"Juan Gualberto Gomez International Airport",
    "continent":"NA",
    "iso_country":"CU",
    "iso_region":"CU-04",
    "municipality":"Matanzas"
    }
  },
  {
    "type": "Feature",
    "geometry": {
       "type": "Point",
       "coordinates":  [ -81.35769653,19.2928009,0 ]
    },
    "properties": {
    "id":4862,
    "ident":"MWCR",
    "type":"large_airport",
    "name":"Owen Roberts International Airport",
    "continent":"NA",
    "iso_country":"KY",
    "iso_region":"KY-U-A",
    "municipality":"Georgetown"
    }
  },
  {
    "type": "Feature",
    "geometry": {
       "type": "Point",
       "coordinates":  [ -77.466202,25.039,0 ]
    },
    "properties": {
    "id":4951,
    "ident":"MYNN",
    "type":"large_airport",
    "name":"Lynden Pindling International Airport",
    "continent":"NA",
    "iso_country":"BS",
    "iso_region":"BS-NP",
    "municipality":"Nassau"
    }
  },
  {
    "type": "Feature",
    "geometry": {
       "type": "Point",
       "coordinates":  [ -88.303556,17.539951,0 ]
    },
    "properties": {
    "id":4956,
    "ident":"MZBZ",
    "type":"large_airport",
    "name":"Philip S. W. Goldson International Airport",
    "continent":"NA",
    "iso_country":"BZ",
    "iso_region":"BZ-BZ",
    "municipality":"Belize City"
    }
  },
  {
    "type": "Feature",
    "geometry": {
       "type": "Point",
       "coordinates":  [ -149.606995,-17.553699,0 ]
    },
    "properties": {
    "id":4979,
    "ident":"NTAA",
    "type":"large_airport",
    "name":"Faa'a International Airport",
    "continent":"OC",
    "iso_country":"PF",
    "iso_region":"PF-U-A",
    "municipality":"Papeete"
    }
  },
  {
    "type": "Feature",
    "geometry": {
       "type": "Point",
       "coordinates":  [ 168.320007,-17.699301,0 ]
    },
    "properties": {
    "id":5011,
    "ident":"NVVV",
    "type":"large_airport",
    "name":"Bauerfield International Airport",
    "continent":"OC",
    "iso_country":"VU",
    "iso_region":"VU-SEE",
    "municipality":"Port Vila"
    }
  },
  {
    "type": "Feature",
    "geometry": {
       "type": "Point",
       "coordinates":  [ 166.473007,-22.258301,0 ]
    },
    "properties": {
    "id":5017,
    "ident":"NWWM",
    "type":"large_airport",
    "name":"Nouméa Magenta Airport",
    "continent":"OC",
    "iso_country":"NC",
    "iso_region":"NC-U-A",
    "municipality":"Nouméa"
    }
  },
  {
    "type": "Feature",
    "geometry": {
       "type": "Point",
       "coordinates":  [ 174.786331,-37.01199,0 ]
    },
    "properties": {
    "id":5023,
    "ident":"NZAA",
    "type":"large_airport",
    "name":"Auckland International Airport",
    "continent":"OC",
    "iso_country":"NZ",
    "iso_region":"NZ-AUK",
    "municipality":"Auckland"
    }
  },
  {
    "type": "Feature",
    "geometry": {
       "type": "Point",
       "coordinates":  [ 172.5319977,-43.48939896,0 ]
    },
    "properties": {
    "id":5026,
    "ident":"NZCH",
    "type":"large_airport",
    "name":"Christchurch International Airport",
    "continent":"OC",
    "iso_country":"NZ",
    "iso_region":"NZ-CAN",
    "municipality":"Christchurch"
    }
  },
  {
    "type": "Feature",
    "geometry": {
       "type": "Point",
       "coordinates":  [ 174.8049927,-41.32720184,0 ]
    },
    "properties": {
    "id":5063,
    "ident":"NZWN",
    "type":"large_airport",
    "name":"Wellington International Airport",
    "continent":"OC",
    "iso_country":"NZ",
    "iso_region":"NZ-WGN",
    "municipality":"Wellington"
    }
  },
  {
    "type": "Feature",
    "geometry": {
       "type": "Point",
       "coordinates":  [ 50.63764,26.267295,0 ]
    },
    "properties": {
    "id":5079,
    "ident":"OBBI",
    "type":"large_airport",
    "name":"Bahrain International Airport",
    "continent":"AS",
    "iso_country":"BH",
    "iso_region":"BH-15",
    "municipality":"Manama"
    }
  },
  {
    "type": "Feature",
    "geometry": {
       "type": "Point",
       "coordinates":  [ 49.79790115,26.47120094,0 ]
    },
    "properties": {
    "id":5087,
    "ident":"OEDF",
    "type":"large_airport",
    "name":"King Fahd International Airport",
    "continent":"AS",
    "iso_country":"SA",
    "iso_region":"SA-04",
    "municipality":"Ad Dammam"
    }
  },
  {
    "type": "Feature",
    "geometry": {
       "type": "Point",
       "coordinates":  [ 50.152,26.2654,0 ]
    },
    "properties": {
    "id":5089,
    "ident":"OEDR",
    "type":"large_airport",
    "name":"King Abdulaziz Air Base",
    "continent":"AS",
    "iso_country":"SA",
    "iso_region":"SA-04",
    "municipality":"Dhahran"
    }
  },
  {
    "type": "Feature",
    "geometry": {
       "type": "Point",
       "coordinates":  [ 39.156502,21.6796,0 ]
    },
    "properties": {
    "id":5097,
    "ident":"OEJN",
    "type":"large_airport",
    "name":"King Abdulaziz International Airport",
    "continent":"AS",
    "iso_country":"SA",
    "iso_region":"SA-02",
    "municipality":"Jeddah"
    }
  },
  {
    "type": "Feature",
    "geometry": {
       "type": "Point",
       "coordinates":  [ 39.705101,24.5534,0 ]
    },
    "properties": {
    "id":5101,
    "ident":"OEMA",
    "type":"large_airport",
    "name":"Prince Mohammad Bin Abdulaziz Airport",
    "continent":"AS",
    "iso_country":"SA",
    "iso_region":"SA-03",
    "municipality":"Medina"
    }
  },
  {
    "type": "Feature",
    "geometry": {
       "type": "Point",
       "coordinates":  [ 46.69879913,24.95759964,0 ]
    },
    "properties": {
    "id":5112,
    "ident":"OERK",
    "type":"large_airport",
    "name":"King Khaled International Airport",
    "continent":"AS",
    "iso_country":"SA",
    "iso_region":"SA-01",
    "municipality":"Riyadh"
    }
  },
  {
    "type": "Feature",
    "geometry": {
       "type": "Point",
       "coordinates":  [ 51.15219879,35.41609955,0 ]
    },
    "properties": {
    "id":5166,
    "ident":"OIIE",
    "type":"large_airport",
    "name":"Imam Khomeini International Airport",
    "continent":"AS",
    "iso_country":"IR",
    "iso_region":"IR-23",
    "municipality":"Tehran"
    }
  },
  {
    "type": "Feature",
    "geometry": {
       "type": "Point",
       "coordinates":  [ 51.31340027,35.68920135,0 ]
    },
    "properties": {
    "id":5168,
    "ident":"OIII",
    "type":"large_airport",
    "name":"Mehrabad International Airport",
    "continent":"AS",
    "iso_country":"IR",
    "iso_region":"IR-23",
    "municipality":"Tehran"
    }
  },
  {
    "type": "Feature",
    "geometry": {
       "type": "Point",
       "coordinates":  [ 59.64099884,36.23519897,0 ]
    },
    "properties": {
    "id":5183,
    "ident":"OIMM",
    "type":"large_airport",
    "name":"Mashhad International Airport",
    "continent":"AS",
    "iso_country":"IR",
    "iso_region":"IR-09",
    "municipality":"Mashhad"
    }
  },
  {
    "type": "Feature",
    "geometry": {
       "type": "Point",
       "coordinates":  [ 52.589802,29.5392,0 ]
    },
    "properties": {
    "id":5197,
    "ident":"OISS",
    "type":"large_airport",
    "name":"Shiraz Shahid Dastghaib International Airport",
    "continent":"AS",
    "iso_country":"IR",
    "iso_region":"IR-07",
    "municipality":"Shiraz"
    }
  },
  {
    "type": "Feature",
    "geometry": {
       "type": "Point",
       "coordinates":  [ 35.99319839,31.72260094,0 ]
    },
    "properties": {
    "id":5212,
    "ident":"OJAI",
    "type":"large_airport",
    "name":"Queen Alia International Airport",
    "continent":"AS",
    "iso_country":"JO",
    "iso_region":"JO-AM",
    "municipality":"Amman"
    }
  },
  {
    "type": "Feature",
    "geometry": {
       "type": "Point",
       "coordinates":  [ 47.968899,29.226601,0 ]
    },
    "properties": {
    "id":5220,
    "ident":"OKBK",
    "type":"large_airport",
    "name":"Kuwait International Airport",
    "continent":"AS",
    "iso_country":"KW",
    "iso_region":"KW-FA",
    "municipality":"Kuwait City"
    }
  },
  {
    "type": "Feature",
    "geometry": {
       "type": "Point",
       "coordinates":  [ 35.48839951,33.82089996,0 ]
    },
    "properties": {
    "id":5222,
    "ident":"OLBA",
    "type":"large_airport",
    "name":"Beirut Rafic Hariri International Airport",
    "continent":"AS",
    "iso_country":"LB",
    "iso_region":"LB-JL",
    "municipality":"Beirut"
    }
  },
  {
    "type": "Feature",
    "geometry": {
       "type": "Point",
       "coordinates":  [ 54.651718,24.443764,0 ]
    },
    "properties": {
    "id":5226,
    "ident":"OMAA",
    "type":"large_airport",
    "name":"Abu Dhabi International Airport",
    "continent":"AS",
    "iso_country":"AE",
    "iso_region":"AE-AZ",
    "municipality":"Abu Dhabi"
    }
  },